$GPGSA,A,1,,,,,,,,,,,,,1.36,0.78,1.11*0A
$GPRMC,173217,V,3831.5100,N,07846.5212,W,0.000,0.0,220205,9.8,W*62
$PRWIZCH,05,0,05,0,17,2,05,0,24,6,05,0,05,0,04,0,05,0,07,6,05,0,05,0*4C
$GPGGA,,,,,,0,00,,,,,,,*66
$GPGSA,A,1,,,,,,,,,,,,,1.36,0.78,1.11*0A
$GPGSV,3,1,12,05,62,238,,07,57,090,41,24,55,041,36,20,52,078,*75
$GPGSV,3,2,12,23,46,069,,17,18,241,36,09,12,286,,04,12,054,41*7F
$GPGSV,3,3,12,30,12,319,,02,11,161,,10,10,194,,29,06,112,*76
$GPRMC,173218,V,3831.5100,N,07846.5212,W,0.000,0.0,220205,9.8,W*6D
$PRWIZCH,05,0,05,0,17,2,05,0,24,6,05,0,05,0,04,4,05,0,07,6,05,0,05,0*48
$GPGGA,,,,,,0,00,,,,,,,*66
$GPGSA,A,1,,,,,,,,,,,,,1.36,0.78,1.11*0A
$GPRMC,173219,V,3831.5100,N,07846.5212,W,0.000,0.0,220205,9.8,W*6C
$PRWIZCH,05,0,05,0,17,2,05,0,24,6,05,0,05,0,04,4,05,0,07,6,05,0,05,0*48
$GPGGA,,,,,,0,00,,,,,,,*66
$GPGSA,A,1,,,,,,,,,,,,,1.36,0.78,1.11*0A
$GPGSV,3,1,12,05,62,238,,07,57,090,41,24,55,041,35,20,52,078,*76
$GPGSV,3,2,12,23,46,069,,17,18,241,37,09,12,286,,04,12,054,37*7F
$GPGSV,3,3,12,30,12,319,,02,11,161,,10,10,194,,29,06,112,*76
$GPRMC,173220,V,3831.5100,N,07846.5212,W,0.000,0.0,220205,9.8,W*66
$PRWIZCH,05,0,05,0,17,2,05,0,24,6,05,0,05,0,04,4,05,0,07,6,05,0,20,0*4F
$GPGGA,,,,,,0,00,,,,,,,*66
$GPGSA,A,1,,,,,,,,,,,,,1.36,0.78,1.11*0A
$GPRMC,173221,V,3831.5100,N,07846.5212,W,0.000,0.0,220205,9.8,W*67
$PRWIZCH,05,0,05,0,17,6,05,0,24,6,05,0,05,0,04,4,05,0,07,6,05,0,20,0*4B
$GPGGA,,,,,,0,00,,,,,,,*66
$GPGSA,A,1,,,,,,,,,,,,,1.36,0.78,1.11*0A
$GPGSV,3,1,12,05,62,238,,07,57,090,39,24,55,041,32,20,52,078,*7E
$GPGSV,3,2,12,23,46,069,,17,18,241,35,09,12,286,,04,12,054,41*7C
$GPGSV,3,3,12,30,12,319,,02,11,161,,10,10,194,,29,06,112,*76
$GPRMC,173222,V,3831.5100,N,07846.5212,W,0.000,0.0,220205,9.8,W*64
$PRWIZCH,05,0,05,0,17,6,05,0,24,6,05,0,05,0,04,4,05,0,07,6,05,0,20,0*4B
$GPGGA,,,,,,0,00,,,,,,,*66
$GPGSA,A,1,,,,,,,,,,,,,1.36,0.78,1.11*0A
$GPRMC,173223,V,3831.5100,N,07846.5212,W,0.000,0.0,220205,9.8,W*65
$PRWIZCH,05,0,05,0,17,6,05,0,24,6,05,0,05,0,04,4,05,0,07,6,05,0,20,0*4B
$GPGGA,,,,,,0,00,,,,,,,*66
$GPGSA,A,1,,,,,,,,,,,,,1.36,0.78,1.11*0A
$GPGSV,3,1,12,05,62,238,,07,57,090,38,24,55,041,32,20,52,078,*7F
$GPGSV,3,2,12,23,46,069,,17,18,241,33,09,12,286,,04,12,054,41*7A
$GPGSV,3,3,12,30,12,319,,02,11,161,,10,10,194,,29,06,112,*76
$GPRMC,173224,V,3831.5100,N,07846.5212,W,0.000,0.0,220205,9.8,W*62
$PRWIZCH,05,0,05,0,17,6,05,0,24,6,05,0,05,0,04,4,05,0,07,6,05,0,20,0*4B
$GPGGA,,,,,,0,00,,,,,,,*66
$GPGSA,A,1,,,,,,,,,,,,,1.36,0.78,1.11*0A
$GPRMC,173225,V,3831.5100,N,07846.5212,W,0.000,0.0,220205,9.8,W*63
$PRWIZCH,20,0,20,0,17,6,20,0,24,6,20,0,20,0,04,4,20,0,07,6,20,0,20,0*4C
$GPGGA,,,,,,0,00,,,,,,,*66
$GPGSA,A,1,,,,,,,,,,,,,1.36,0.78,1.11*0A
$GPGSV,3,1,12,05,62,238,,07,57,090,38,24,55,041,35,20,52,078,*78
$GPGSV,3,2,12,23,46,069,,17,18,241,25,09,12,286,,04,12,054,42*7E
$GPGSV,3,3,12,30,12,319,,02,11,161,,10,10,194,,29,06,112,*76
$GPRMC,173226,V,3831.5100,N,07846.5212,W,0.000,0.0,220205,9.8,W*60
$PRWIZCH,20,0,20,0,17,2,20,0,24,6,20,0,20,0,04,4,20,0,07,6,20,0,20,0*48
$GPGGA,,,,,,0,00,,,,,,,*66
$GPGSA,A,1,,,,,,,,,,,,,1.36,0.78,1.11*0A
$GPRMC,173227,V,3831.5100,N,07846.5212,W,0.000,0.0,220205,9.8,W*61
$PRWIZCH,20,0,20,0,17,2,20,0,24,6,20,0,20,0,04,4,20,0,07,6,20,0,20,0*48
$GPGGA,,,,,,0,00,,,,,,,*66
$GPGSA,A,1,,,,,,,,,,,,,1.36,0.78,1.11*0A
$GPGSV,3,1,12,05,62,238,,07,57,090,32,24,55,041,38,20,52,078,*7F
$GPGSV,3,2,12,23,46,069,,17,18,241,29,09,12,286,,04,12,054,41*71
$GPGSV,3,3,12,30,12,319,,02,11,161,,10,10,194,,29,06,112,*76
$GPRMC,173228,V,3831.5100,N,07846.5212,W,0.000,0.0,220205,9.8,W*6E
$PRWIZCH,20,0,20,0,17,2,20,0,24,6,20,0,20,0,04,4,20,0,07,2,20,0,20,0*4C
$GPGGA,,,,,,0,00,,,,,,,*66
$GPGSA,A,1,,,,,,,,,,,,,1.36,0.78,1.11*0A
$GPRMC,173229,V,3831.5100,N,07846.5212,W,0.000,0.0,220205,9.8,W*6F
$PRWIZCH,20,0,20,0,17,2,20,0,24,6,20,0,20,0,04,4,20,0,07,6,20,0,20,0*48
$GPGGA,,,,,,0,00,,,,,,,*66
$GPGSA,A,1,,,,,,,,,,,,,1.36,0.78,1.11*0A
$GPGSV,3,1,12,05,62,238,,07,57,090,37,24,55,041,41,20,52,078,*74
$GPGSV,3,2,12,23,46,069,,17,18,241,25,09,12,286,,04,12,054,41*7D
$GPGSV,3,3,12,30,12,319,,02,11,161,,10,10,194,,29,06,112,*76
$GPRMC,173230,V,3831.5100,N,07846.5212,W,0.000,0.0,220205,9.8,W*67
$PRWIZCH,20,0,20,0,17,2,20,0,24,6,23,0,20,0,04,4,23,0,07,6,20,0,20,0*48
$GPGGA,,,,,,0,00,,,,,,,*66
$GPGSA,A,1,,,,,,,,,,,,,1.36,0.78,1.11*0A
$GPRMC,173231,V,3831.5100,N,07846.5212,W,0.000,0.0,220205,9.8,W*66
$PRWIZCH,20,0,20,0,17,2,20,0,24,6,23,0,20,0,04,4,23,0,07,6,20,0,20,0*48
$GPGGA,,,,,,0,00,,,,,,,*66
$GPGSA,A,1,,,,,,,,,,,,,1.36,0.78,1.11*0A
$GPGSV,3,1,12,05,62,238,,07,57,090,37,24,55,041,36,20,52,078,*74
$GPGSV,3,2,12,23,46,069,,17,18,241,26,09,12,286,,04,12,054,41*7E
$GPGSV,3,3,12,30,12,319,,02,11,161,,10,10,194,,29,06,112,*76
$GPRMC,173232,V,3831.5100,N,07846.5212,W,0.000,0.0,220205,9.8,W*65
$PRWIZCH,20,0,20,0,17,2,20,0,24,6,23,0,20,0,04,4,23,0,07,6,20,0,20,0*48
$GPGGA,,,,,,0,00,,,,,,,*66
$GPGSA,A,1,,,,,,,,,,,,,1.36,0.78,1.11*0A
$GPRMC,173233,V,3831.5100,N,07846.5212,W,0.000,0.0,220205,9.8,W*64
$PRWIZCH,20,0,20,0,17,2,20,0,24,6,23,0,20,0,04,4,23,0,07,6,20,0,20,0*48
$GPGGA,,,,,,0,00,,,,,,,*66
$GPGSA,A,1,,,,,,,,,,,,,1.36,0.78,1.11*0A
$GPGSV,3,1,12,05,62,238,,07,57,090,37,24,55,041,40,20,52,078,*75
$GPGSV,3,2,12,23,46,069,,17,18,241,29,09,12,286,,04,12,054,42*72
$GPGSV,3,3,12,30,12,319,,02,11,161,,10,10,194,,29,06,112,*76
$GPRMC,173234,V,3831.5100,N,07846.5212,W,0.000,0.0,220205,9.8,W*63
$PRWIZCH,20,0,20,0,17,2,20,0,24,6,23,0,20,0,04,4,23,0,07,6,20,0,20,0*48
$GPGGA,,,,,,0,00,,,,,,,*66
$GPGSA,A,1,,,,,,,,,,,,,1.36,0.78,1.11*0A
$GPRMC,173235,V,3831.5100,N,07846.5212,W,0.000,0.0,220205,9.8,W*62
$PRWIZCH,23,0,23,0,17,2,23,0,24,6,23,0,23,0,04,6,23,0,07,6,23,0,23,0*4A
$GPGGA,,,,,,0,00,,,,,,,*66
$GPGSA,A,1,,,,,,,,,,,,,1.36,0.78,1.11*0A
$GPGSV,3,1,12,05,62,238,,07,57,090,37,24,55,041,40,20,52,078,*75
$GPGSV,3,2,12,23,46,069,,17,18,241,28,09,12,286,,04,12,054,41*70
$GPGSV,3,3,12,30,12,319,,02,11,161,,10,10,194,,29,06,112,*76
$GPRMC,173236,V,3831.5100,N,07846.5212,W,0.000,0.0,220205,9.8,W*61
$PRWIZCH,23,0,23,0,17,2,23,0,24,6,23,0,23,0,04,6,23,0,07,6,23,0,23,0*4A
$GPGGA,,,,,,0,00,,,,,,,*66
$GPGSA,A,1,,,,,,,,,,,,,1.36,0.78,1.11*0A
$GPRMC,173237,V,3831.5100,N,07846.5212,W,0.000,0.0,220205,9.8,W*60
$PRWIZCH,05,0,05,0,17,2,05,0,24,6,05,0,05,0,04,6,05,0,07,6,05,0,05,0*4A
$GPGGA,173238,3826.5085,N,07852.0803,W,1,04,0.91,404.4,M,-33.1,M,,*4C
$GPGSA,A,3,17,24,04,07,,,,,,,,,1.54,0.91,1.24*0E
$GPGSV,3,1,12,04,78,327,42,05,62,238,,07,57,090,38,24,55,041,40*7B
$GPGSV,3,2,12,20,52,078,,23,46,069,,17,18,242,29,09,12,286,*7B
$GPGSV,3,3,12,30,12,319,,02,11,161,,10,10,194,,29,06,112,*76
$GPRMC,173238,A,3826.5085,N,07852.0803,W,19.651,310.8,220205,9.8,W*48
$PRWIZCH,05,0,05,0,17,7,05,0,24,7,05,0,05,0,04,7,05,0,07,7,05,0,05,0*4E
$GPGGA,173239,3826.5126,N,07852.0850,W,1,03,0.91,402.3,M,-33.1,M,,*45
$GPGSA,A,2,24,04,07,,,,,,,,,,1.54,0.91,1.24*09
$GPRMC,173239,A,3826.5126,N,07852.0850,W,18.891,314.1,220205,9.7,W*46
$PRWIZCH,05,0,05,0,17,2,05,0,24,7,05,0,05,0,04,7,05,0,07,7,05,0,05,0*4B
$GPGGA,173240,3826.5163,N,07852.0899,W,1,03,0.91,402.5,M,-33.1,M,,*49
$GPGSA,A,2,24,04,07,,,,,,,,,,1.54,0.91,1.24*09
$GPGSV,3,1,12,04,78,327,42,05,62,238,,07,57,090,38,24,55,041,40*7B
$GPGSV,3,2,12,20,52,078,,23,46,069,,17,18,242,34,09,12,286,*77
$GPGSV,3,3,12,30,12,319,,02,11,161,,10,10,194,,29,06,112,*76
$GPRMC,173240,A,3826.5163,N,07852.0899,W,19.136,317.0,220205,9.7,W*4B
$PRWIZCH,05,0,05,0,17,2,05,0,24,7,05,0,05,0,04,7,05,0,07,7,05,0,05,0*4B
$GPGGA,173241,3826.5202,N,07852.0948,W,1,03,0.91,403.0,M,-33.1,M,,*45
$GPGSA,A,2,24,04,07,,,,,,,,,,1.54,0.91,1.24*09
$GPRMC,173241,A,3826.5202,N,07852.0948,W,19.327,319.0,220205,9.7,W*4F
$PRWIZCH,05,0,05,0,17,2,05,0,24,7,05,0,05,0,04,7,05,0,07,7,05,0,05,0*4B
$GPGGA,173242,3826.5241,N,07852.0996,W,1,03,0.91,403.6,M,-33.1,M,,*44
$GPGSA,A,2,24,04,07,,,,,,,,,,1.54,0.91,1.24*09
$GPGSV,3,1,12,04,78,327,43,05,62,238,,07,57,090,34,24,55,041,37*76
$GPGSV,3,2,12,20,52,078,,23,46,069,,17,18,242,24,09,12,286,*76
$GPGSV,3,3,12,30,12,319,,02,11,161,,10,10,194,,29,06,112,*76
$GPRMC,173242,A,3826.5241,N,07852.0996,W,19.475,320.5,220205,9.7,W*47
$PRWIZCH,05,0,20,0,17,2,05,0,24,7,23,0,09,0,04,7,05,0,07,7,30,0,02,0*45
$GPGGA,173243,3826.5279,N,07852.1043,W,1,02,0.91,404.2,M,-33.1,M,,*4C
$GPGSA,A,2,04,07,,,,,,,,,,,1.54,0.91,1.24*0F
$GPRMC,173243,A,3826.5279,N,07852.1043,W,19.014,320.6,220205,9.7,W*4D
$PRWIZCH,05,0,20,0,17,2,05,0,24,2,23,0,09,0,04,7,05,0,07,7,30,0,02,0*40
$GPGGA,173244,3826.5323,N,07852.1087,W,1,03,0.91,404.8,M,-33.1,M,,*46
$GPGSA,A,2,24,04,07,,,,,,,,,,1.54,0.91,1.24*09
$GPGSV,3,1,12,04,78,327,42,05,62,238,,07,57,090,39,24,55,041,41*7B
$GPGSV,3,2,12,20,52,078,,23,46,069,,17,18,242,28,09,12,286,*7A
$GPGSV,3,3,12,30,12,319,,02,11,161,,10,10,194,,29,06,112,*76
$GPRMC,173244,A,3826.5323,N,07852.1087,W,19.498,323.6,220205,9.7,W*4F
$PRWIZCH,05,0,20,0,17,2,05,0,24,7,23,0,09,0,04,7,05,0,07,7,30,0,02,0*45
$GPGGA,173245,3826.5361,N,07852.1131,W,1,03,0.91,405.5,M,-33.1,M,,*41
$GPGSA,A,2,24,04,07,,,,,,,,,,1.54,0.91,1.24*09
$GPRMC,173245,A,3826.5361,N,07852.1131,W,19.071,324.7,220205,9.7,W*41
$PRWIZCH,05,0,20,0,17,2,05,0,24,7,23,0,09,0,04,7,05,0,07,7,30,0,02,0*45
$GPGGA,173246,3826.5397,N,07852.1173,W,1,03,0.91,406.1,M,-33.1,M,,*4A
$GPGSA,A,2,24,04,07,,,,,,,,,,1.54,0.91,1.24*09
$GPGSV,3,1,12,04,78,327,42,05,62,238,,07,57,090,39,24,55,041,41*7B
$GPGSV,3,2,12,20,52,078,,23,46,069,,17,18,242,32,09,12,286,*71
$GPGSV,3,3,12,30,12,319,,02,11,161,,10,10,194,,29,06,112,*76
$GPRMC,173246,A,3826.5397,N,07852.1173,W,18.509,325.6,220205,9.7,W*46
$PRWIZCH,05,0,20,0,17,2,05,0,24,7,23,0,09,0,04,7,05,0,07,7,30,0,02,0*45
$GPGGA,173247,3826.5432,N,07852.1213,W,1,03,0.91,406.7,M,-33.1,M,,*40
$GPGSA,A,2,24,04,07,,,,,,,,,,1.54,0.91,1.24*09
$GPRMC,173247,A,3826.5432,N,07852.1213,W,17.909,326.5,220205,9.7,W*49
$PRWIZCH,05,0,20,0,17,2,05,0,24,7,23,0,09,0,04,7,05,0,07,7,30,0,02,0*45
$GPGGA,173248,3826.5467,N,07852.1250,W,1,03,0.91,407.3,M,-33.1,M,,*4D
$GPGSA,A,2,24,04,07,,,,,,,,,,1.54,0.91,1.24*09
$GPGSV,3,1,12,04,78,327,42,05,62,237,,07,57,090,38,24,55,041,36*75
$GPGSV,3,2,12,20,52,078,,23,46,069,,17,18,242,26,09,12,286,*74
$GPGSV,3,3,12,30,12,319,,02,11,161,,10,10,194,,29,06,112,*76
$GPRMC,173248,A,3826.5467,N,07852.1250,W,17.429,328.2,220205,9.7,W*47
$PRWIZCH,05,0,20,0,17,2,05,0,24,7,23,0,09,0,04,7,05,0,07,7,30,0,02,0*45
$GPGGA,173249,3826.5502,N,07852.1284,W,1,02,0.91,407.8,M,-33.1,M,,*4D
$GPGSA,A,2,04,07,,,,,,,,,,,1.54,0.91,1.24*0F
$GPRMC,173249,A,3826.5502,N,07852.1284,W,16.658,329.4,220205,9.7,W*4F
$PRWIZCH,05,0,20,0,17,2,05,0,24,2,23,0,09,0,04,7,05,0,07,7,30,0,02,0*40
$GPGGA,173250,3826.5541,N,07852.1313,W,1,03,0.91,408.3,M,-33.1,M,,*48
$GPGSA,A,2,24,04,07,,,,,,,,,,1.54,0.91,1.24*09
$GPGSV,3,1,12,04,78,327,42,05,62,237,,07,57,090,38,24,55,041,41*75
$GPGSV,3,2,12,20,52,078,,23,46,069,,17,18,242,32,09,12,286,*71
$GPGSV,3,3,12,30,12,319,,02,11,161,,10,10,194,,29,06,112,*76
$GPRMC,173250,A,3826.5541,N,07852.1313,W,16.374,332.8,220205,9.7,W*42
$PRWIZCH,05,0,20,0,17,2,05,0,24,7,23,0,09,0,04,7,05,0,07,7,30,0,02,0*45
$GPGGA,173251,3826.5571,N,07852.1343,W,1,03,0.91,408.7,M,-33.1,M,,*4B
$GPGSA,A,2,24,04,07,,,,,,,,,,1.54,0.91,1.24*09
$GPRMC,173251,A,3826.5571,N,07852.1343,W,15.570,333.0,220205,9.7,W*4D
$PRWIZCH,05,0,20,0,17,2,05,0,24,7,23,0,09,0,04,7,05,0,07,7,30,0,02,0*45
$GPGGA,173252,3826.5599,N,07852.1373,W,1,03,0.91,409.1,M,-33.1,M,,*4A
$GPGSA,A,2,24,04,07,,,,,,,,,,1.54,0.91,1.24*09
$GPGSV,3,1,12,04,78,327,42,05,62,237,,07,57,090,38,24,55,041,42*76
$GPGSV,3,2,12,20,52,078,,23,46,069,,17,18,242,23,09,12,286,*71
$GPGSV,3,3,12,30,12,319,,02,11,161,,10,10,194,,29,06,112,*76
$GPRMC,173252,A,3826.5599,N,07852.1373,W,14.767,333.2,220205,9.7,W*4C
$PRWIZCH,05,0,05,0,17,2,05,0,24,7,23,0,09,0,04,7,20,0,07,7,30,0,02,0*45
$GPGGA,173253,3826.5625,N,07852.1400,W,1,03,0.91,409.4,M,-33.1,M,,*49
$GPGSA,A,2,24,04,07,,,,,,,,,,1.54,0.91,1.24*09
$GPRMC,173253,A,3826.5625,N,07852.1400,W,14.145,333.9,220205,9.7,W*47
$PRWIZCH,05,0,05,0,17,2,05,0,24,7,23,0,09,0,04,7,20,0,07,7,30,0,02,0*45
$GPGGA,173254,3826.5651,N,07852.1425,W,1,03,0.91,409.8,M,-33.1,M,,*46
$GPGSA,A,2,24,04,07,,,,,,,,,,1.54,0.91,1.24*09
$GPGSV,3,1,12,04,78,327,42,05,62,237,,07,57,090,37,24,55,041,39*75
$GPGSV,3,2,12,20,52,078,,23,46,069,,17,18,242,29,09,12,286,*7B
$GPGSV,3,3,12,30,12,319,,02,11,161,,10,10,194,,29,06,112,*76
$GPRMC,173254,A,3826.5651,N,07852.1425,W,13.392,334.7,220205,9.7,W*42
$PRWIZCH,05,0,05,0,17,2,05,0,24,7,23,0,09,0,04,7,20,0,07,7,30,0,02,0*45
$GPGGA,173255,3826.5676,N,07852.1448,W,1,03,0.91,410.1,M,-33.1,M,,*48
$GPGSA,A,2,24,04,07,,,,,,,,,,1.54,0.91,1.24*09
$GPRMC,173255,A,3826.5676,N,07852.1448,W,12.687,336.3,220205,9.7,W*4B
$PRWIZCH,05,0,05,0,17,2,05,0,24,7,23,0,09,0,04,7,20,0,07,7,30,0,02,0*45
$GPGGA,173256,3826.5698,N,07852.1467,W,1,03,0.91,410.4,M,-33.1,M,,*43
$GPGSA,A,2,24,04,07,,,,,,,,,,1.54,0.91,1.24*09
$GPGSV,3,1,12,04,78,327,43,05,62,237,,07,57,090,37,24,55,041,40*7A
$GPGSV,3,2,12,20,52,078,,23,46,069,,17,18,242,35,09,12,286,*76
$GPGSV,3,3,12,30,12,319,,02,11,161,,10,10,194,,29,06,112,*76
$GPRMC,173256,A,3826.5698,N,07852.1467,W,11.448,338.8,220205,9.7,W*42
$PRWIZCH,05,0,05,0,17,2,05,0,24,7,23,0,09,0,04,7,20,0,07,7,30,0,02,0*45
$GPGGA,173257,3826.5717,N,07852.1482,W,1,03,0.91,410.7,M,-33.1,M,,*4C
$GPGSA,A,2,24,04,07,,,,,,,,,,1.54,0.91,1.24*09
$GPRMC,173257,A,3826.5717,N,07852.1482,W,10.198,342.0,220205,9.7,W*42
$PRWIZCH,05,0,05,0,17,2,05,0,24,7,23,0,09,0,04,7,20,0,07,7,30,0,02,0*45
$GPGGA,173258,3826.5732,N,07852.1492,W,1,03,0.91,411.0,M,-33.1,M,,*43
$GPGSA,A,2,24,04,07,,,,,,,,,,1.54,0.91,1.24*09
$GPGSV,3,1,12,04,78,327,44,05,62,237,,07,57,090,36,24,55,041,39*72
$GPGSV,3,2,12,20,52,078,,23,46,069,,17,18,242,31,09,12,286,*72
$GPGSV,3,3,12,30,12,319,,02,11,161,,10,10,194,,29,06,112,*76
$GPRMC,173258,A,3826.5732,N,07852.1492,W,8.679,348.4,220205,9.7,W*74
$PRWIZCH,05,0,20,0,17,2,05,0,24,7,23,0,09,0,04,7,02,0,07,7,30,0,10,0*41
$GPGGA,173259,3826.5744,N,07852.1497,W,1,03,0.91,411.3,M,-33.1,M,,*45
$GPGSA,A,2,24,04,07,,,,,,,,,,1.54,0.91,1.24*09
$GPRMC,173259,A,3826.5744,N,07852.1497,W,7.403,355.6,220205,9.7,W*7F
$PRWIZCH,05,0,20,0,17,2,05,0,24,7,23,0,09,0,04,7,02,0,07,7,30,0,10,0*41
$GPGGA,173300,3826.5723,N,07852.1528,W,1,04,0.91,411.9,M,-33.1,M,,*41
$GPGSA,A,3,17,24,04,07,,,,,,,,,1.54,0.91,1.24*0E
$GPGSV,3,1,12,04,78,327,44,05,62,237,,07,57,090,35,24,55,041,40*7F
$GPGSV,3,2,12,20,52,078,,23,46,069,,17,18,242,32,09,12,286,*71
$GPGSV,3,3,12,30,12,319,,02,11,161,,10,10,194,,29,06,112,*76
$GPRMC,173300,A,3826.5723,N,07852.1528,W,4.815,295.6,220205,9.7,W*73
$PRWIZCH,05,0,20,0,17,7,05,0,24,7,23,0,09,0,04,7,02,0,07,7,30,0,10,0*44
$GPGGA,173301,3826.5734,N,07852.1545,W,1,02,0.91,412.2,M,-33.1,M,,*43
$GPGSA,A,2,24,04,,,,,,,,,,,1.54,0.91,1.24*0E
$GPRMC,173301,A,3826.5734,N,07852.1545,W,5.906,310.3,220205,9.7,W*74
$PRWIZCH,05,0,20,0,17,2,05,0,24,7,23,0,09,0,04,7,02,0,07,2,30,0,10,0*44
$GPGGA,173302,3826.5720,N,07852.1571,W,1,04,0.91,413.0,M,-33.1,M,,*47
$GPGSA,A,3,17,24,04,07,,,,,,,,,1.54,0.91,1.24*0E
$GPGSV,3,1,12,04,78,327,42,05,62,237,,07,57,090,37,24,55,041,37*7B
$GPGSV,3,2,12,20,52,078,,23,46,069,,17,18,242,32,09,12,286,*71
$GPGSV,3,3,12,30,12,319,,02,11,161,,10,10,194,,29,06,112,*76
$GPRMC,173302,A,3826.5720,N,07852.1571,W,7.955,262.9,220205,9.7,W*7F
$PRWIZCH,05,0,20,0,17,7,05,0,24,7,23,0,09,0,04,7,02,0,07,7,30,0,10,0*44
$GPGGA,173303,3826.5713,N,07852.1594,W,1,03,0.91,413.5,M,-33.1,M,,*4F
$GPGSA,A,2,24,04,07,,,,,,,,,,1.54,0.91,1.24*09
$GPRMC,173303,A,3826.5713,N,07852.1594,W,6.618,260.0,220205,9.7,W*79
$PRWIZCH,05,0,05,0,17,2,20,0,24,7,23,0,09,0,04,7,02,0,07,7,30,0,10,0*41
$GPGGA,173304,3826.5688,N,07852.1628,W,1,03,0.91,413.8,M,-33.1,M,,*42
$GPGSA,A,2,17,04,07,,,,,,,,,,1.54,0.91,1.24*09
$GPGSV,3,1,12,04,78,327,42,05,62,237,,07,57,090,39,24,55,041,32*70
$GPGSV,3,2,12,20,52,078,,23,46,069,,17,18,242,32,09,12,286,*71
$GPGSV,3,3,12,30,12,319,,02,11,161,,10,10,194,,29,06,112,*76
$GPRMC,173304,A,3826.5688,N,07852.1628,W,11.410,240.3,220205,9.7,W*44
$PRWIZCH,05,0,05,0,17,7,20,0,24,2,23,0,09,0,04,7,02,0,07,7,30,0,10,0*41
$GPGGA,173305,3826.5660,N,07852.1663,W,1,04,0.91,414.9,M,-33.1,M,,*4B
$GPGSA,A,3,17,24,04,07,,,,,,,,,1.54,0.91,1.24*0E
$GPRMC,173305,A,3826.5660,N,07852.1663,W,13.573,233.1,220205,9.7,W*4C
$PRWIZCH,05,0,05,0,17,7,20,0,24,7,23,0,09,0,04,7,02,0,07,7,30,0,10,0*44
$GPGGA,173306,3826.5638,N,07852.1695,W,1,03,0.91,415.4,M,-33.1,M,,*47
$GPGSA,A,2,24,04,07,,,,,,,,,,1.54,0.91,1.24*09
$GPGSV,3,1,12,04,78,327,41,05,62,237,,07,57,090,39,24,55,041,32*73
$GPGSV,3,2,12,20,52,078,,23,46,069,,17,18,242,30,09,12,286,*73
$GPGSV,3,3,12,30,12,319,,02,11,161,,10,10,194,,29,06,112,*76
$GPRMC,173306,A,3826.5638,N,07852.1695,W,12.067,229.8,220205,9.7,W*48
$PRWIZCH,05,0,05,0,17,2,20,0,24,7,23,0,09,0,04,7,02,0,07,7,30,0,10,0*41
$GPGGA,173307,3826.5614,N,07852.1728,W,1,03,0.91,416.0,M,-33.1,M,,*48
$GPGSA,A,2,24,04,07,,,,,,,,,,1.54,0.91,1.24*09
$GPRMC,173307,A,3826.5614,N,07852.1728,W,11.800,227.8,220205,9.7,W*44
$PRWIZCH,05,0,05,0,17,2,20,0,24,7,23,0,09,0,04,7,02,0,07,7,30,0,10,0*41
$GPGGA,173308,3826.5584,N,07852.1764,W,1,03,0.91,416.6,M,-33.1,M,,*43
$GPGSA,A,2,24,04,07,,,,,,,,,,1.54,0.91,1.24*09
$GPGSV,3,1,12,04,78,327,41,05,62,237,,07,57,090,40,24,55,041,34*7B
$GPGSV,3,2,12,20,52,078,,23,46,069,,17,18,242,35,09,12,286,*76
$GPGSV,3,3,12,30,12,319,,02,11,161,,10,10,194,,29,06,112,*76
$GPRMC,173308,A,3826.5584,N,07852.1764,W,12.302,226.3,220205,9.7,W*49
$PRWIZCH,05,0,05,0,17,2,20,0,24,7,23,0,09,0,04,7,02,0,07,7,30,0,10,0*41
$GPGGA,173309,3826.5517,N,07852.1825,W,1,04,0.91,417.4,M,-33.1,M,,*46
$GPGSA,A,3,17,24,04,07,,,,,,,,,1.54,0.91,1.24*0E
$GPRMC,173309,A,3826.5517,N,07852.1825,W,20.015,223.9,220205,9.7,W*43
$PRWIZCH,05,0,05,0,17,7,20,0,24,7,23,0,09,0,04,7,02,0,07,7,30,0,10,0*44
$GPGGA,173310,3826.5471,N,07852.1875,W,1,04,0.91,418.6,M,-33.1,M,,*47
$GPGSA,A,3,17,24,04,07,,,,,,,,,1.54,0.91,1.24*0E
$GPGSV,3,1,12,04,78,327,40,05,62,237,,07,57,090,40,24,55,041,34*7A
$GPGSV,3,2,12,20,52,078,,23,46,069,,17,18,242,35,09,12,286,*76
$GPGSV,3,3,12,30,12,319,,02,11,161,,10,10,194,,29,06,112,*76
$GPRMC,173310,A,3826.5471,N,07852.1875,W,21.244,223.0,220205,9.7,W*41
$PRWIZCH,05,0,05,0,17,7,20,0,24,7,23,0,09,0,04,7,02,0,07,7,30,0,10,0*44
$GPGGA,173311,3826.5424,N,07852.1926,W,1,04,0.91,419.8,M,-33.1,M,,*4E
$GPGSA,A,3,17,24,04,07,,,,,,,,,1.54,0.91,1.24*0E
$GPRMC,173311,A,3826.5424,N,07852.1926,W,22.048,221.9,220205,9.7,W*41
$PRWIZCH,05,0,05,0,17,7,20,0,24,7,23,0,09,0,04,7,02,0,07,7,30,0,10,0*44
$GPGGA,173312,3826.5382,N,07852.1972,W,1,03,0.91,420.6,M,-33.1,M,,*44
$GPGSA,A,2,24,04,07,,,,,,,,,,1.54,0.91,1.24*09
$GPGSV,3,1,12,04,78,327,41,05,62,237,,07,57,090,40,24,55,041,34*7B
$GPGSV,3,2,12,20,52,078,,23,46,069,,17,18,242,30,09,12,286,*73
$GPGSV,3,3,12,30,12,319,,02,11,161,,10,10,194,,29,06,112,*76
$GPRMC,173312,A,3826.5382,N,07852.1972,W,20.114,220.3,220205,9.7,W*49
$PRWIZCH,05,0,05,0,17,2,20,0,24,7,23,0,09,0,04,7,02,0,07,7,30,0,10,0*41
$GPGGA,173313,3826.5341,N,07852.2017,W,1,03,0.91,421.4,M,-33.1,M,,*40
$GPGSA,A,2,24,04,07,,,,,,,,,,1.54,0.91,1.24*09
$GPRMC,173313,A,3826.5341,N,07852.2017,W,18.935,219.6,220205,9.7,W*41
$PRWIZCH,05,0,29,0,17,2,20,0,24,7,23,0,09,0,04,7,02,0,07,7,30,0,10,0*4F
$GPGGA,173314,3826.5301,N,07852.2062,W,1,03,0.91,422.3,M,-33.1,M,,*45
$GPGSA,A,2,24,04,07,,,,,,,,,,1.54,0.91,1.24*09
$GPGSV,3,1,12,04,78,327,42,05,62,237,,07,57,090,40,24,55,041,35*79
$GPGSV,3,2,12,20,52,078,,23,46,069,,17,18,242,27,09,12,286,*75
$GPGSV,3,3,12,30,12,319,,02,11,161,,10,10,194,,29,06,112,*76
$GPRMC,173314,A,3826.5301,N,07852.2062,W,18.133,219.4,220205,9.7,W*4C
$PRWIZCH,05,0,29,0,17,2,20,0,24,7,23,0,09,0,04,7,02,0,07,7,30,0,10,0*4F
$GPGGA,173315,3826.5262,N,07852.2105,W,1,03,0.91,423.1,M,-33.1,M,,*43
$GPGSA,A,2,24,04,07,,,,,,,,,,1.54,0.91,1.24*09
$GPRMC,173315,A,3826.5262,N,07852.2105,W,17.279,219.7,220205,9.7,W*48
$PRWIZCH,05,0,29,0,17,2,20,0,24,7,23,0,09,0,04,7,02,0,07,7,30,0,10,0*4F
$GPGGA,173316,3826.5224,N,07852.2149,W,1,03,0.91,423.9,M,-33.1,M,,*42
$GPGSA,A,2,24,04,07,,,,,,,,,,1.54,0.91,1.24*09
$GPGSV,3,1,12,04,78,327,41,05,62,237,,07,57,090,40,24,55,041,35*7A
$GPGSV,3,2,12,20,52,078,,23,46,069,,17,18,242,33,09,12,286,*70
$GPGSV,3,3,12,30,12,319,,02,11,161,,10,10,194,,29,06,112,*76
$GPRMC,173316,A,3826.5224,N,07852.2149,W,16.668,220.5,220205,9.7,W*4C
$PRWIZCH,05,0,29,0,17,2,20,0,24,7,23,0,09,0,04,7,02,0,07,7,30,0,10,0*4F
$GPGGA,173317,3826.5188,N,07852.2191,W,1,03,0.91,424.6,M,-33.1,M,,*4B
$GPGSA,A,2,24,04,07,,,,,,,,,,1.54,0.91,1.24*09
$GPRMC,173317,A,3826.5188,N,07852.2191,W,15.875,221.2,220205,9.7,W*4A
$PRWIZCH,05,0,29,0,17,2,20,0,24,7,23,0,09,0,04,7,02,0,07,7,30,0,10,0*4F
$GPGGA,173318,3826.5137,N,07852.2244,W,1,04,0.91,425.9,M,-33.1,M,,*42
$GPGSA,A,3,17,24,04,07,,,,,,,,,1.54,0.91,1.24*0E
$GPGSV,3,1,12,04,78,329,39,05,62,237,,07,56,091,40,24,55,041,36*78
$GPGSV,3,2,12,20,52,077,,23,46,068,,17,18,242,37,09,12,286,*7A
$GPGSV,3,3,12,30,12,319,,10,11,194,,02,10,161,,29,06,112,*76
$GPRMC,173318,A,3826.5137,N,07852.2244,W,19.166,222.0,220205,9.7,W*4C
$PRWIZCH,05,0,10,0,17,7,20,0,24,7,23,0,09,0,04,7,02,0,07,7,30,0,29,0*4A
$GPGGA,173319,3826.5097,N,07852.2289,W,1,04,0.91,427.7,M,-33.1,M,,*45
$GPGSA,A,3,17,24,04,07,,,,,,,,,1.54,0.91,1.24*0E
$GPRMC,173319,A,3826.5097,N,07852.2289,W,18.903,222.3,220205,9.7,W*4E
$PRWIZCH,05,0,10,0,17,7,20,0,24,7,23,0,09,0,04,7,02,0,07,7,30,0,29,0*4A
$GPGGA,173320,3826.5064,N,07852.2328,W,1,03,0.91,428.4,M,-33.1,M,,*42
$GPGSA,A,2,24,04,07,,,,,,,,,,1.54,0.91,1.24*09
$GPGSV,3,1,12,04,78,329,39,05,62,237,,07,56,091,39,24,55,041,36*76
$GPGSV,3,2,12,20,52,077,,23,46,068,,17,18,242,33,09,12,286,*7E
$GPGSV,3,3,12,30,12,319,,10,11,194,,02,10,161,,29,06,112,*76
$GPRMC,173320,A,3826.5064,N,07852.2328,W,16.314,220.7,220205,9.7,W*46
$PRWIZCH,05,0,10,0,17,2,20,0,24,7,23,0,09,0,04,7,02,0,07,7,30,0,29,0*4F
$GPGGA,173321,3826.5034,N,07852.2363,W,1,03,0.91,429.2,M,-33.1,M,,*4E
$GPGSA,A,2,24,04,07,,,,,,,,,,1.54,0.91,1.24*09
$GPRMC,173321,A,3826.5034,N,07852.2363,W,14.350,220.0,220205,9.7,W*48
$PRWIZCH,05,0,10,0,17,2,20,0,24,7,23,0,09,0,04,7,02,0,07,7,30,0,29,0*4F
$GPGGA,173322,3826.5006,N,07852.2393,W,1,03,0.91,430.0,M,-33.1,M,,*49
$GPGSA,A,2,24,04,07,,,,,,,,,,1.54,0.91,1.24*09
$GPGSV,3,1,12,04,78,329,39,05,62,237,,07,56,091,38,24,55,041,37*76
$GPGSV,3,2,12,20,52,077,,23,46,068,,17,18,242,31,09,12,286,*7C
$GPGSV,3,3,12,30,12,319,,10,11,194,,02,10,161,,29,06,112,*76
$GPRMC,173322,A,3826.5006,N,07852.2393,W,12.688,218.3,220205,9.7,W*4B
$PRWIZCH,05,0,10,0,17,2,20,0,24,7,23,0,09,0,04,7,02,0,07,7,30,0,29,0*4F
$GPGGA,173323,3826.4980,N,07852.2420,W,1,03,0.91,430.8,M,-33.1,M,,*49
$GPGSA,A,2,24,04,07,,,,,,,,,,1.54,0.91,1.24*09
$GPRMC,173323,A,3826.4980,N,07852.2420,W,11.186,217.3,220205,9.7,W*46
$PRWIZCH,05,0,10,0,17,2,20,0,24,7,23,0,09,0,04,7,02,0,07,7,30,0,29,0*4F
$GPGGA,173324,3826.4959,N,07852.2438,W,1,02,0.91,431.4,M,-33.1,M,,*4F
$GPGSA,A,2,24,07,,,,,,,,,,,1.54,0.91,1.24*0D
$GPGSV,3,1,12,04,78,329,39,05,62,237,,07,56,091,38,24,55,041,37*76
$GPGSV,3,2,12,20,52,077,,23,46,068,,17,18,242,30,09,12,286,*7D
$GPGSV,3,3,12,30,12,319,,10,11,194,,02,10,161,,29,06,112,*76
$GPRMC,173324,A,3826.4959,N,07852.2438,W,8.638,210.4,220205,9.7,W*76
$PRWIZCH,05,0,10,0,17,2,20,0,24,7,23,0,09,0,04,2,02,0,07,7,30,0,29,0*4A
$GPGGA,173325,3826.4939,N,07852.2463,W,1,03,0.91,432.0,M,-33.1,M,,*40
$GPGSA,A,2,24,04,07,,,,,,,,,,1.54,0.91,1.24*09
$GPRMC,173325,A,3826.4939,N,07852.2463,W,7.627,213.1,220205,9.7,W*78
$PRWIZCH,05,0,10,0,17,2,20,0,24,7,23,0,09,0,04,7,02,0,07,7,30,0,29,0*4F
$GPGGA,173326,3826.4926,N,07852.2476,W,1,03,0.91,432.4,M,-33.1,M,,*4D
$GPGSA,A,2,24,04,07,,,,,,,,,,1.54,0.91,1.24*09
$GPGSV,3,1,12,04,78,329,39,05,62,237,,07,56,091,38,24,55,041,38*79
$GPGSV,3,2,12,20,52,077,,23,46,068,,17,18,242,34,09,12,286,*79
$GPGSV,3,3,12,30,12,319,,10,11,194,,02,10,161,,29,06,112,*76
$GPRMC,173326,A,3826.4926,N,07852.2476,W,5.525,209.7,220205,9.7,W*7F
$PRWIZCH,05,0,10,0,17,2,20,0,24,7,23,0,09,0,04,7,02,0,07,7,30,0,29,0*4F
$GPGGA,173327,3826.4915,N,07852.2483,W,1,04,0.91,434.0,M,-33.1,M,,*43
$GPGSA,A,3,17,24,04,07,,,,,,,,,1.54,0.91,1.24*0E
$GPRMC,173327,A,3826.4915,N,07852.2483,W,3.922,202.8,220205,9.7,W*7D
$PRWIZCH,05,0,10,0,17,7,20,0,24,7,23,0,09,0,04,7,02,0,07,7,30,0,29,0*4A
$GPGGA,173328,3826.4912,N,07852.2483,W,1,03,0.91,434.6,M,-33.1,M,,*4A
$GPGSA,A,2,24,04,07,,,,,,,,,,1.54,0.91,1.24*09
$GPGSV,3,1,12,04,78,329,35,05,62,237,,07,56,091,39,24,55,041,36*7A
$GPGSV,3,2,12,20,52,077,,23,46,068,,17,18,242,27,09,12,286,*7B
$GPGSV,3,3,12,30,12,319,,10,11,194,,02,10,161,,29,06,112,*76
$GPRMC,173328,A,3826.4912,N,07852.2483,W,1.779,175.0,220205,9.7,W*7C
$PRWIZCH,05,0,10,0,17,2,20,0,24,7,23,0,09,0,04,7,02,0,07,7,30,0,29,0*4F
$GPGGA,173329,3826.4912,N,07852.2481,W,1,03,0.91,435.1,M,-33.1,M,,*4F
$GPGSA,A,2,24,04,07,,,,,,,,,,1.54,0.91,1.24*09
$GPRMC,173329,A,3826.4912,N,07852.2481,W,1.141,111.9,220205,9.7,W*79
$PRWIZCH,05,0,10,0,17,2,20,0,24,7,23,0,09,0,04,7,02,0,07,7,30,0,29,0*4F
$GPGGA,173330,3826.4912,N,07852.2479,W,1,03,0.91,435.7,M,-33.1,M,,*46
$GPGSA,A,2,24,04,07,,,,,,,,,,1.54,0.91,1.24*09
$GPGSV,3,1,12,04,78,329,36,05,62,237,,07,56,091,39,24,55,041,37*78
$GPGSV,3,2,12,20,52,077,,23,46,068,,17,18,242,28,09,12,286,*74
$GPGSV,3,3,12,30,12,319,,10,11,194,,02,10,161,,29,06,112,*76
$GPRMC,173330,A,3826.4912,N,07852.2479,W,1.512,70.7,220205,9.7,W*4C
$PRWIZCH,05,0,10,0,17,2,20,0,24,7,23,0,09,0,04,7,02,0,07,7,30,0,29,0*4F
$GPGGA,173331,3826.4916,N,07852.2479,W,1,02,0.91,436.2,M,-33.1,M,,*44
$GPGSA,A,2,24,04,,,,,,,,,,,1.54,0.91,1.24*0E
$GPRMC,173331,A,3826.4916,N,07852.2479,W,2.176,25.7,220205,9.7,W*4C
$PRWIZCH,05,0,10,0,17,2,20,0,24,7,23,0,09,0,04,7,02,0,07,2,30,0,29,0*4A
$GPGGA,173332,3826.4895,N,07852.2481,W,1,04,0.91,437.4,M,-33.1,M,,*4B
$GPGSA,A,3,17,24,04,07,,,,,,,,,1.54,0.91,1.24*0E
$GPGSV,3,1,12,04,78,329,36,05,62,237,,07,56,091,39,24,55,041,37*78
$GPGSV,3,2,12,20,52,077,,23,46,068,,17,18,242,28,09,12,286,*74
$GPGSV,3,3,12,30,12,319,,10,11,194,,02,10,161,,29,06,112,*76
$GPRMC,173332,A,3826.4895,N,07852.2481,W,1.347,183.4,220205,9.7,W*7F
$PRWIZCH,05,0,10,0,17,7,20,0,24,7,23,0,09,0,04,7,02,0,07,7,30,0,29,0*4A
$GPGGA,173333,3826.4895,N,07852.2477,W,1,03,0.91,437.9,M,-33.1,M,,*49
$GPGSA,A,2,24,04,07,,,,,,,,,,1.54,0.91,1.24*09
$GPRMC,173333,A,3826.4895,N,07852.2477,W,1.325,92.5,220205,9.7,W*43
$PRWIZCH,05,0,10,0,17,2,20,0,24,7,23,0,09,0,04,7,02,0,07,7,30,0,29,0*4F
$GPGGA,173334,3826.4896,N,07852.2473,W,1,03,0.91,438.5,M,-33.1,M,,*4A
$GPGSA,A,2,24,04,07,,,,,,,,,,1.54,0.91,1.24*09
$GPGSV,3,1,12,04,78,329,36,05,62,237,,07,56,091,39,24,55,041,37*78
$GPGSV,3,2,12,20,52,077,,23,46,068,,17,18,242,29,09,12,286,*75
$GPGSV,3,3,12,30,12,319,,10,11,194,,02,10,161,,29,06,112,*76
$GPRMC,173334,A,3826.4896,N,07852.2473,W,2.007,69.4,220205,9.7,W*46
$PRWIZCH,05,0,10,0,17,2,20,0,24,7,23,0,09,0,04,7,02,0,07,7,30,0,29,0*4F
$GPGGA,173335,3826.4897,N,07852.2469,W,1,03,0.91,439.0,M,-33.1,M,,*45
$GPGSA,A,2,24,04,07,,,,,,,,,,1.54,0.91,1.24*09
$GPRMC,173335,A,3826.4897,N,07852.2469,W,2.620,60.3,220205,9.7,W*40
$PRWIZCH,05,0,10,0,17,2,20,0,24,7,23,0,09,0,04,7,02,0,07,7,30,0,29,0*4F
$GPGGA,173336,3826.4899,N,07852.2466,W,1,03,0.91,439.5,M,-33.1,M,,*42
$GPGSA,A,2,24,04,07,,,,,,,,,,1.54,0.91,1.24*09
$GPGSV,3,1,12,04,78,329,37,05,62,237,,07,56,091,39,24,55,041,36*78
$GPGSV,3,2,12,20,52,077,,23,46,068,,17,18,242,30,09,12,286,*7D
$GPGSV,3,3,12,30,12,319,,10,11,194,,02,10,161,,29,06,112,*76
$GPRMC,173336,A,3826.4899,N,07852.2466,W,2.783,55.2,220205,9.7,W*4D
$PRWIZCH,05,0,10,0,17,2,20,0,24,7,23,0,09,0,04,7,02,0,07,7,30,0,29,0*4F
$GPGGA,173337,3826.4889,N,07852.2472,W,1,04,0.91,440.6,M,-33.1,M,,*4D
$GPGSA,A,3,17,24,04,07,,,,,,,,,1.54,0.91,1.24*0E
$GPRMC,173337,A,3826.4889,N,07852.2472,W,0.681,195.0,220205,9.7,W*76
$PRWIZCH,05,0,10,0,17,7,20,0,24,7,23,0,09,0,04,7,02,0,07,7,30,0,29,0*4A
$GPGGA,173338,3826.4886,N,07852.2473,W,1,04,0.91,442.0,M,-33.1,M,,*48
$GPGSA,A,3,17,24,04,07,,,,,,,,,1.54,0.91,1.24*0E
$GPGSV,3,1,12,04,78,329,37,05,62,237,,07,56,091,40,24,55,041,37*77
$GPGSV,3,2,12,20,52,077,,23,46,068,,17,18,242,31,09,12,286,*7C
$GPGSV,3,3,12,30,12,319,,10,11,194,,02,10,161,,29,06,112,*76
$GPRMC,173338,A,3826.4886,N,07852.2473,W,1.142,204.0,220205,9.7,W*75
$PRWIZCH,05,0,10,0,17,7,20,0,24,7,23,0,09,0,04,7,02,0,07,7,30,0,29,0*4A
$GPGGA,173339,3826.4882,N,07852.2474,W,1,04,0.91,443.6,M,-33.1,M,,*4D
$GPGSA,A,3,17,24,04,07,,,,,,,,,1.54,0.91,1.24*0E
$GPRMC,173339,A,3826.4882,N,07852.2474,W,1.307,208.2,220205,9.7,W*7A
$PRWIZCH,05,0,10,0,17,7,20,0,24,7,23,0,09,0,04,7,02,0,07,7,30,0,29,0*4A
$GPGGA,173340,3826.4878,N,07852.2476,W,1,04,0.91,445.0,M,-33.1,M,,*44
$GPGSA,A,3,17,24,04,07,,,,,,,,,1.54,0.91,1.24*0E
$GPGSV,3,1,12,04,78,329,36,05,62,237,,07,56,091,40,24,55,041,37*76
$GPGSV,3,2,12,20,52,077,,23,46,068,,17,18,242,30,09,12,286,*7D
$GPGSV,3,3,12,30,12,319,,10,11,194,,02,10,161,,29,06,112,*76
$GPRMC,173340,A,3826.4878,N,07852.2476,W,1.527,207.4,220205,9.7,W*7E
$PRWIZCH,05,0,10,0,17,7,20,0,24,7,23,0,09,0,04,7,02,0,07,7,30,0,29,0*4A
$GPGGA,173341,3826.4873,N,07852.2478,W,1,04,0.91,447.1,M,-33.1,M,,*43
$GPGSA,A,3,17,24,04,07,,,,,,,,,1.54,0.91,1.24*0E
$GPRMC,173341,A,3826.4873,N,07852.2478,W,2.016,205.0,220205,9.7,W*78
$PRWIZCH,05,0,10,0,17,7,20,0,24,7,23,0,09,0,04,7,02,0,07,7,30,0,29,0*4A
$GPGGA,173342,3826.4869,N,07852.2479,W,1,04,0.91,448.6,M,-33.1,M,,*42
$GPGSA,A,3,17,24,04,07,,,,,,,,,1.54,0.91,1.24*0E
$GPGSV,3,1,12,04,78,329,36,05,62,237,,07,56,091,40,24,55,041,37*76
$GPGSV,3,2,12,20,52,077,,23,46,068,,17,18,242,31,09,12,286,*7C
$GPGSV,3,3,12,30,12,319,,10,11,194,,02,10,161,,29,06,112,*76
$GPRMC,173342,A,3826.4869,N,07852.2479,W,2.018,203.7,220205,9.7,W*7E
$PRWIZCH,05,0,10,0,17,7,20,0,24,7,23,0,09,0,04,7,02,0,07,7,30,0,29,0*4A
$GPGGA,173343,3826.4864,N,07852.2481,W,1,04,0.91,450.1,M,-33.1,M,,*47
$GPGSA,A,3,17,24,04,07,,,,,,,,,1.54,0.91,1.24*0E
$GPRMC,173343,A,3826.4864,N,07852.2481,W,2.123,203.2,220205,9.7,W*79
$PRWIZCH,05,0,10,0,17,7,20,0,24,7,23,0,09,0,04,7,02,0,07,7,30,0,29,0*4A
$GPGGA,173344,3826.4860,N,07852.2483,W,1,04,0.91,451.6,M,-33.1,M,,*40
$GPGSA,A,3,17,24,04,07,,,,,,,,,1.54,0.91,1.24*0E
$GPGSV,3,1,12,04,78,329,36,05,62,237,,07,56,091,40,24,55,041,37*76
$GPGSV,3,2,12,20,52,077,,23,46,068,,17,18,242,31,09,12,286,*7C
$GPGSV,3,3,12,30,12,319,,10,11,194,,02,10,161,,29,06,112,*76
$GPRMC,173344,A,3826.4860,N,07852.2483,W,2.103,205.0,220205,9.7,W*7E
$PRWIZCH,05,0,10,0,17,7,20,0,24,7,23,0,09,0,04,7,02,0,07,7,30,0,29,0*4A
$GPGGA,173345,3826.4855,N,07852.2485,W,1,04,0.91,453.1,M,-33.1,M,,*44
$GPGSA,A,3,17,24,04,07,,,,,,,,,1.54,0.91,1.24*0E
$GPRMC,173345,A,3826.4855,N,07852.2485,W,2.116,202.6,220205,9.7,W*7A
$PRWIZCH,05,0,10,0,17,7,20,0,24,7,23,0,09,0,04,7,02,0,07,7,30,0,29,0*4A
$GPGGA,173346,3826.4851,N,07852.2486,W,1,04,0.91,454.7,M,-33.1,M,,*41
$GPGSA,A,3,17,24,04,07,,,,,,,,,1.54,0.91,1.24*0E
$GPGSV,3,1,12,04,78,329,36,05,62,237,,07,56,091,40,24,55,041,37*76
$GPGSV,3,2,12,20,52,077,,23,46,068,,17,18,242,31,09,12,286,*7C
$GPGSV,3,3,12,30,12,319,,10,11,194,,02,10,161,,29,06,112,*76
$GPRMC,173346,A,3826.4851,N,07852.2486,W,2.171,204.1,220205,9.7,W*7E
$PRWIZCH,05,0,10,0,17,7,20,0,24,7,23,0,09,0,04,7,02,0,07,7,30,0,29,0*4A
$GPGGA,173347,3826.4846,N,07852.2488,W,1,04,0.91,456.4,M,-33.1,M,,*49
$GPGSA,A,3,17,24,04,07,,,,,,,,,1.54,0.91,1.24*0E
$GPRMC,173347,A,3826.4846,N,07852.2488,W,2.266,205.0,220205,9.7,W*72
$PRWIZCH,05,0,10,0,17,7,20,0,24,7,23,0,09,0,04,7,02,0,07,7,30,0,29,0*4A
$GPGGA,173348,3826.4842,N,07852.2491,W,1,04,0.91,458.1,M,-33.1,M,,*41
$GPGSA,A,3,17,24,04,07,,,,,,,,,1.54,0.91,1.24*0E
$GPGSV,3,1,12,04,78,330,35,05,62,237,,07,56,091,40,24,55,041,37*7D
$GPGSV,3,2,12,20,52,077,,23,46,068,,17,19,242,32,09,12,286,*7E
$GPGSV,3,3,12,30,12,319,,10,11,194,,02,10,161,,29,07,112,*77
$GPRMC,173348,A,3826.4842,N,07852.2491,W,2.254,206.0,220205,9.7,W*73
$PRWIZCH,05,0,10,0,17,7,20,0,24,7,23,0,09,0,04,7,02,0,07,7,30,0,29,0*4A
$GPGGA,173349,3826.4837,N,07852.2493,W,1,04,0.91,459.8,M,-33.1,M,,*48
$GPGSA,A,3,17,24,04,07,,,,,,,,,1.54,0.91,1.24*0E
$GPRMC,173349,A,3826.4837,N,07852.2493,W,2.291,204.9,220205,9.7,W*70
$PRWIZCH,05,0,10,0,17,7,20,0,24,7,23,0,09,0,04,7,02,0,07,7,30,0,29,0*4A
$GPGGA,173350,3826.4833,N,07852.2495,W,1,04,0.91,461.5,M,-33.1,M,,*44
$GPGSA,A,3,17,24,04,07,,,,,,,,,1.54,0.91,1.24*0E
$GPGSV,3,1,12,04,78,330,34,05,62,237,,07,56,091,40,24,55,041,36*7D
$GPGSV,3,2,12,20,52,077,,23,46,068,,17,19,242,32,09,12,286,*7E
$GPGSV,3,3,12,30,12,319,,10,11,194,,02,10,161,,29,07,112,*77
$GPRMC,173350,A,3826.4833,N,07852.2495,W,2.303,204.4,220205,9.7,W*7D
$PRWIZCH,05,0,10,0,17,7,0,24,7,23,0,09,0,04,7,02,0,07,7,30,0,29,0*4A
$GPGGA,173351,3826.4828,N,07852.2497,W,1,04,0.91,463.3,M,-33.1,M,,*49
$GPGSA,A,3,17,24,04,07,,,,,,,,,1.54,0.91,1.24*0E
$GPRMC,173351,A,3826.4828,N,07852.2497,W,2.346,205.8,220205,9.7,W*78
$PRWIZCH,05,0,10,0,17,7,20,0,24,7,23,0,09,0,04,7,02,0,07,7,30,0,29,0*4A
$GPGGA,173352,3826.4823,N,07852.2499,W,1,04,0.91,465.0,M,-33.1,M,,*4A
$GPGSA,A,3,17,24,04,07,,,,,,,,,1.54,0.91,1.24*0E
$GPGSV,3,1,12,04,78,330,35,05,62,237,,07,56,091,40,24,55,041,36*7C
$GPGSV,3,2,12,20,52,077,,23,46,068,,17,19,242,32,09,12,286,*7E
$GPGSV,3,3,12,30,12,319,,10,11,194,,02,10,161,,29,07,112,*77
$GPRMC,173352,A,3826.4823,N,07852.2499,W,2.477,205.3,220205,9.7,W*70
$PRWIZCH,05,0,10,0,17,7,20,0,24,7,23,0,09,0,04,7,02,0,07,7,30,0,29,0*4A
$GPGGA,173353,3826.4818,N,07852.2501,W,1,04,0.91,466.8,M,-33.1,M,,*48
$GPGSA,A,3,17,24,04,07,,,,,,,,,1.54,0.91,1.24*0E
$GPRMC,173353,A,3826.4818,N,07852.2501,W,2.430,204.9,220205,9.7,W*71
$PRWIZCH,05,0,10,0,17,7,20,0,24,7,23,0,09,0,04,7,02,0,07,7,30,0,29,0*4A
$GPGGA,173354,3826.4814,N,07852.2505,W,1,04,0.91,468.6,M,-33.1,M,,*47
$GPGSA,A,3,17,24,04,07,,,,,,,,,1.54,0.91,1.24*0E
$GPGSV,3,1,12,04,78,330,37,05,62,237,,07,56,091,39,24,55,041,38*7E
$GPGSV,3,2,12,20,52,077,,23,46,068,,17,19,242,31,09,12,286,*7D
$GPGSV,3,3,12,30,12,319,,10,11,194,,02,10,161,,29,07,112,*77
$GPRMC,173354,A,3826.4814,N,07852.2505,W,2.882,214.4,220205,9.7,W*77
$PRWIZCH,05,0,10,0,17,7,20,0,24,7,23,0,09,0,04,7,02,0,07,7,30,0,29,0*4A
$GPGGA,173355,3826.4812,N,07852.2507,W,1,03,0.91,470.1,M,-33.1,M,,*4B
$GPGSA,A,2,24,04,07,,,,,,,,,,1.54,0.91,1.24*09
$GPRMC,173355,A,3826.4812,N,07852.2507,W,1.577,204.2,220205,9.7,W*71
$PRWIZCH,05,0,10,0,17,2,20,0,24,7,23,0,09,0,04,7,02,0,07,7,30,0,29,0*4F
$GPGGA,173356,3826.4807,N,07852.2503,W,1,01,0.91,471.4,M,-33.1,M,,*4E
$GPGSA,A,2,07,,,,,,,,,,,,1.54,0.91,1.24*0B
$GPGSV,3,1,12,04,78,330,39,05,62,237,,07,56,091,39,24,55,041,37*7F
$GPGSV,3,2,12,20,52,077,,23,46,068,,17,19,242,30,09,12,286,*7C
$GPGSV,3,3,12,30,12,319,,10,11,194,,02,10,161,,29,07,112,*77
$GPRMC,173356,A,3826.4807,N,07852.2503,W,2.218,150.7,220205,9.7,W*78
$PRWIZCH,05,0,10,0,17,2,20,0,24,2,23,0,09,0,04,2,02,0,07,7,30,0,29,0*4F
$GPGGA,173357,3826.4820,N,07852.2532,W,1,02,0.91,472.7,M,-33.1,M,,*4B
$GPGSA,A,2,04,07,,,,,,,,,,,1.54,0.91,1.24*0F
$GPRMC,173357,A,3826.4820,N,07852.2532,W,3.554,283.9,220205,9.7,W*73
$PRWIZCH,05,0,10,0,17,2,20,0,24,2,23,0,09,0,04,7,02,0,07,7,30,0,29,0*4A
$GPGGA,173358,3826.4831,N,07852.2560,W,1,01,0.91,473.9,M,-33.1,M,,*4F
$GPGSA,A,2,04,,,,,,,,,,,,1.54,0.91,1.24*08
$GPGSV,3,1,12,04,78,330,43,05,62,237,,07,56,091,36,24,55,041,42*7F
$GPGSV,3,2,12,20,52,077,,23,46,068,,17,19,242,34,09,12,286,*78
$GPGSV,3,3,12,30,12,319,,10,11,194,,02,10,161,,29,07,112,*77
$GPRMC,173358,A,3826.4831,N,07852.2560,W,5.945,293.5,220205,9.7,W*7C
$PRWIZCH,05,0,10,0,17,2,20,0,24,2,23,0,09,0,04,7,02,0,07,2,30,0,29,0*4F
$GPGGA,173359,3826.4855,N,07852.2579,W,1,03,0.91,474.9,M,-33.1,M,,*41
$GPGSA,A,2,24,04,07,,,,,,,,,,1.54,0.91,1.24*09
$GPRMC,173359,A,3826.4855,N,07852.2579,W,7.684,316.4,220205,9.7,W*7A
$PRWIZCH,05,0,10,0,17,2,20,0,24,7,23,0,09,0,04,7,02,0,07,7,30,0,29,0*4F
$GPGGA,173400,3826.4839,N,07852.2645,W,1,04,0.91,476.9,M,-33.1,M,,*49
$GPGSA,A,3,17,24,04,07,,,,,,,,,1.54,0.91,1.24*0E
$GPGSV,3,1,12,04,78,330,43,05,62,237,,07,56,091,37,24,55,041,42*7E
$GPGSV,3,2,12,20,52,077,,23,46,068,,17,19,242,36,09,12,286,*7A
$GPGSV,3,3,12,30,12,319,,10,11,194,,02,10,161,,29,07,112,*77
$GPRMC,173400,A,3826.4839,N,07852.2645,W,10.820,291.2,220205,9.7,W*49
$PRWIZCH,05,0,10,0,17,7,20,0,24,7,23,0,09,0,04,7,02,0,07,7,30,0,29,0*4A
$GPGGA,173401,3826.4862,N,07852.2691,W,1,04,0.91,479.2,M,-33.1,M,,*4B
$GPGSA,A,3,17,24,04,07,,,,,,,,,1.54,0.91,1.24*0E
$GPRMC,173401,A,3826.4862,N,07852.2691,W,13.236,294.8,220205,9.7,W*4E
$PRWIZCH,05,0,10,0,17,7,20,0,24,7,23,0,09,0,04,7,02,0,07,7,30,0,29,0*4A
$GPGGA,173402,3826.4886,N,07852.2744,W,1,04,0.91,481.3,M,-33.1,M,,*4D
$GPGSA,A,3,17,24,04,07,,,,,,,,,1.54,0.91,1.24*0E
$GPGSV,3,1,12,04,78,330,43,05,62,237,,07,56,091,38,24,55,041,42*71
$GPGSV,3,2,12,20,52,077,,23,46,068,,17,19,242,35,09,12,286,*79
$GPGSV,3,3,12,30,12,319,,10,11,194,,02,10,161,,29,07,112,*77
$GPRMC,173402,A,3826.4886,N,07852.2744,W,15.505,297.0,220205,9.7,W*44
$PRWIZCH,05,0,10,0,17,7,20,0,24,7,23,0,09,0,04,7,02,0,07,7,30,0,29,0*4A
$GPGGA,173403,3826.4913,N,07852.2799,W,1,04,0.91,483.1,M,-33.1,M,,*41
$GPGSA,A,3,17,24,04,07,,,,,,,,,1.54,0.91,1.24*0E
$GPRMC,173403,A,3826.4913,N,07852.2799,W,17.120,298.2,220205,9.7,W*44
$PRWIZCH,05,0,10,0,17,7,20,0,24,7,23,0,09,0,04,7,02,0,07,7,30,0,29,0*4A
$GPGGA,173404,3826.4943,N,07852.2856,W,1,04,0.91,484.8,M,-33.1,M,,*41
$GPGSA,A,3,17,24,04,07,,,,,,,,,1.54,0.91,1.24*0E
$GPGSV,3,1,12,04,78,330,43,05,62,237,,07,56,091,38,24,55,041,41*72
$GPGSV,3,2,12,20,52,077,,23,46,068,,17,19,242,36,09,12,286,*7A
$GPGSV,3,3,12,30,12,319,,10,11,194,,02,10,161,,29,07,112,*77
$GPRMC,173404,A,3826.4943,N,07852.2856,W,18.495,299.7,220205,9.7,W*4A
$PRWIZCH,05,0,10,0,17,7,20,0,24,7,23,0,09,0,04,7,02,0,07,7,30,0,29,0*4A
$GPGGA,173405,3826.4974,N,07852.2915,W,1,04,0.91,486.3,M,-33.1,M,,*4B
$GPGSA,A,3,17,24,04,07,,,,,,,,,1.54,0.91,1.24*0E
$GPRMC,173405,A,3826.4974,N,07852.2915,W,19.337,301.0,220205,9.7,W*40
$PRWIZCH,05,0,10,0,17,7,20,0,24,7,23,0,09,0,04,7,02,0,07,7,30,0,29,0*4A
$GPGGA,173406,3826.5006,N,07852.2974,W,1,04,0.91,487.5,M,-33.1,M,,*45
$GPGSA,A,3,17,24,04,07,,,,,,,,,1.54,0.91,1.24*0E
$GPGSV,3,1,12,04,78,330,42,05,62,237,,07,56,091,38,24,55,041,41*73
$GPGSV,3,2,12,20,52,077,,23,46,068,,17,19,242,35,09,12,286,*79
$GPGSV,3,3,12,30,12,319,,10,11,194,,02,10,161,,29,07,112,*77
$GPRMC,173406,A,3826.5006,N,07852.2974,W,19.686,302.2,220205,9.7,W*47
$PRWIZCH,05,0,10,0,17,7,20,0,24,7,23,0,09,0,04,7,02,0,07,7,30,0,29,0*4A
$GPGGA,173407,3826.5039,N,07852.3032,W,1,04,0.91,488.7,M,-33.1,M,,*4F
$GPGSA,A,3,17,24,04,07,,,,,,,,,1.54,0.91,1.24*0E
$GPRMC,173407,A,3826.5039,N,07852.3032,W,19.815,302.8,220205,9.7,W*4E
$PRWIZCH,05,0,10,0,17,7,20,0,24,7,23,0,09,0,04,7,02,0,07,7,30,0,29,0*4A
$GPGGA,173408,3826.5070,N,07852.3089,W,1,04,0.91,489.9,M,-33.1,M,,*42
$GPGSA,A,3,17,24,04,07,,,,,,,,,1.54,0.91,1.24*0E
$GPGSV,3,1,12,04,78,330,42,05,62,237,,07,56,091,39,24,55,041,42*71
$GPGSV,3,2,12,20,52,077,,23,46,068,,17,19,242,34,09,12,286,*78
$GPGSV,3,3,12,30,12,319,,10,11,194,,02,10,161,,29,07,112,*77
$GPRMC,173408,A,3826.5070,N,07852.3089,W,19.651,303.1,220205,9.7,W*4A
$PRWIZCH,05,0,10,0,17,7,20,0,24,7,23,0,09,0,04,7,02,0,07,7,30,0,29,0*4A
$GPGGA,173409,3826.5101,N,07852.3143,W,1,04,0.91,491.2,M,-33.1,M,,*41
$GPGSA,A,3,17,24,04,07,,,,,,,,,1.54,0.91,1.24*0E
$GPRMC,173409,A,3826.5101,N,07852.3143,W,19.015,303.6,220205,9.7,W*4A
$PRWIZCH,05,0,10,0,17,7,20,0,24,7,23,0,09,0,04,7,02,0,07,7,30,0,29,0*4A
$GPGGA,173410,3826.5130,N,07852.3195,W,1,04,0.91,492.4,M,-33.1,M,,*45
$GPGSA,A,3,17,24,04,07,,,,,,,,,1.54,0.91,1.24*0E
$GPGSV,3,1,12,04,78,330,42,05,62,237,,07,56,091,39,24,55,041,42*71
$GPGSV,3,2,12,20,52,077,,23,46,068,,17,19,242,36,09,12,286,*7A
$GPGSV,3,3,12,30,12,319,,10,11,194,,02,10,161,,29,07,112,*77
$GPRMC,173410,A,3826.5130,N,07852.3195,W,18.349,303.9,220205,9.7,W*4F
$PRWIZCH,05,0,10,0,17,7,20,0,24,7,23,0,09,0,04,7,02,0,07,7,30,0,29,0*4A
$GPGGA,173411,3826.5157,N,07852.3244,W,1,04,0.91,493.6,M,-33.1,M,,*49
$GPGSA,A,3,17,24,04,07,,,,,,,,,1.54,0.91,1.24*0E
$GPRMC,173411,A,3826.5157,N,07852.3244,W,17.625,303.4,220205,9.7,W*4D
$PRWIZCH,05,0,10,0,17,7,20,0,24,7,23,0,09,0,04,7,02,0,07,7,30,0,29,0*4A
$GPGGA,173412,3826.5184,N,07852.3292,W,1,04,0.91,494.7,M,-33.1,M,,*49
$GPGSA,A,3,17,24,04,07,,,,,,,,,1.54,0.91,1.24*0E
$GPGSV,3,1,12,04,78,330,42,05,62,237,,07,56,091,39,24,55,041,42*71
$GPGSV,3,2,12,20,52,077,,23,46,068,,17,19,242,34,09,12,286,*78
$GPGSV,3,3,12,30,12,319,,10,11,194,,02,10,161,,29,07,112,*77
$GPRMC,173412,A,3826.5184,N,07852.3292,W,16.896,303.8,220205,9.7,W*40
$PRWIZCH,05,0,10,0,17,7,20,0,24,7,23,0,09,0,04,7,02,0,07,7,30,0,29,0*4A
$GPGGA,173413,3826.5209,N,07852.3337,W,1,04,0.91,495.9,M,-33.1,M,,*4F
$GPGSA,A,3,17,24,04,07,,,,,,,,,1.54,0.91,1.24*0E
$GPRMC,173413,A,3826.5209,N,07852.3337,W,16.038,304.4,220205,9.7,W*4E
$PRWIZCH,05,0,10,0,17,7,20,0,24,7,23,0,09,0,04,7,02,0,07,7,30,0,29,0*4A
$GPGGA,173414,3826.5237,N,07852.3375,W,1,03,0.91,496.9,M,-33.1,M,,*47
$GPGSA,A,2,24,04,07,,,,,,,,,,1.54,0.91,1.24*09
$GPGSV,3,1,12,04,78,330,42,05,62,237,,07,56,091,40,24,55,041,41*7C
$GPGSV,3,2,12,20,52,077,,23,46,068,,17,19,242,30,09,12,286,*7C
$GPGSV,3,3,12,30,12,319,,10,11,194,,02,10,161,,29,07,112,*77
$GPRMC,173414,A,3826.5237,N,07852.3375,W,14.592,311.4,220205,9.7,W*41
$PRWIZCH,05,0,10,0,17,2,20,0,24,7,23,0,09,0,04,7,02,0,07,7,30,0,29,0*4F
$GPGGA,173415,3826.5264,N,07852.3406,W,1,03,0.91,498.0,M,-33.1,M,,*44
$GPGSA,A,2,24,04,07,,,,,,,,,,1.54,0.91,1.24*09
$GPRMC,173415,A,3826.5264,N,07852.3406,W,13.146,318.5,220205,9.7,W*47
$PRWIZCH,05,0,10,0,17,2,20,0,24,7,23,0,09,0,04,7,02,0,07,7,30,0,29,0*4F
$GPGGA,173416,3826.5289,N,07852.3431,W,1,03,0.91,499.2,M,-33.1,M,,*43
$GPGSA,A,2,24,04,07,,,,,,,,,,1.54,0.91,1.24*09
$GPGSV,3,1,12,04,78,330,42,05,62,237,,07,56,091,39,24,55,041,42*71
$GPGSV,3,2,12,20,52,077,,23,46,068,,17,19,242,31,09,12,286,*7D
$GPGSV,3,3,12,30,12,319,,10,11,194,,02,10,161,,29,07,112,*77
$GPRMC,173416,A,3826.5289,N,07852.3431,W,11.905,324.3,220205,9.7,W*47
$PRWIZCH,05,0,10,0,17,2,20,0,24,7,23,0,09,0,04,7,02,0,07,7,30,0,29,0*4F
$GPGGA,173417,3826.5310,N,07852.3451,W,1,03,1.02,500.2,M,-33.1,M,,*4F
$GPGSA,A,2,24,04,07,,,,,,,,,,1.75,1.02,1.43*00
$GPRMC,173417,A,3826.5310,N,07852.3451,W,10.414,329.9,220205,9.7,W*4A
$PRWIZCH,05,0,10,0,17,2,20,0,24,7,23,0,09,0,04,7,02,0,07,7,30,0,29,0*4F
$GPGGA,173418,3826.5326,N,07852.3465,W,1,03,1.02,501.1,M,-33.1,M,,*40
$GPGSA,A,2,24,04,07,,,,,,,,,,1.75,1.02,1.43*00
$GPGSV,3,1,12,04,78,331,43,05,62,236,,07,56,091,41,24,54,042,43*7C
$GPGSV,3,2,12,20,52,077,,23,45,068,,17,19,242,34,09,12,285,*78
$GPGSV,3,3,12,30,12,319,,10,11,194,,02,10,161,,29,07,112,*77
$GPRMC,173418,A,3826.5326,N,07852.3465,W,8.720,337.2,220205,9.7,W*7E
$PRWIZCH,05,0,10,0,17,2,20,0,24,7,23,0,09,0,04,7,02,0,07,7,30,0,29,0*4F
$GPGGA,173419,3826.5339,N,07852.3473,W,1,03,1.02,501.9,M,-33.1,M,,*40
$GPGSA,A,2,24,04,07,,,,,,,,,,1.75,1.02,1.43*00
$GPRMC,173419,A,3826.5339,N,07852.3473,W,7.220,347.0,220205,9.7,W*79
$PRWIZCH,05,0,10,0,17,2,20,0,24,7,23,0,09,0,04,7,02,0,07,7,30,0,29,0*4F
$GPGGA,173420,3826.5350,N,07852.3475,W,1,03,1.02,502.6,M,-33.1,M,,*4F
$GPGSA,A,2,24,04,07,,,,,,,,,,1.75,1.02,1.43*00
$GPGSV,3,1,12,04,78,331,43,05,62,236,,07,56,091,41,24,54,042,43*7C
$GPGSV,3,2,12,20,52,077,,23,45,068,,17,19,242,,09,12,285,*7F
$GPGSV,3,3,12,30,12,319,,10,11,194,,02,10,161,,29,07,112,*77
$GPRMC,173420,A,3826.5350,N,07852.3475,W,6.035,359.8,220205,9.7,W*7A
$PRWIZCH,05,0,10,0,17,2,20,0,24,7,23,0,09,0,04,7,02,0,07,7,30,0,29,0*4F
$GPGGA,173421,3826.5357,N,07852.3474,W,1,03,1.02,503.2,M,-33.1,M,,*4D
$GPGSA,A,2,24,04,07,,,,,,,,,,1.75,1.02,1.43*00
$GPRMC,173421,A,3826.5357,N,07852.3474,W,5.252,11.7,220205,9.7,W*4D
$PRWIZCH,05,0,10,0,17,2,20,0,24,7,23,0,09,0,04,7,02,0,07,7,30,0,29,0*4F
$GPGGA,173422,3826.5364,N,07852.3471,W,1,03,1.02,503.7,M,-33.1,M,,*4E
$GPGSA,A,2,24,04,07,,,,,,,,,,1.75,1.02,1.43*00
$GPGSV,3,1,12,04,78,331,43,05,62,236,,07,56,091,41,24,54,042,43*7C
$GPGSV,3,2,12,20,52,077,,23,45,068,,17,19,242,,09,12,285,*7F
$GPGSV,3,3,12,30,12,319,,10,11,194,,02,10,161,,29,07,112,*77
$GPRMC,173422,A,3826.5364,N,07852.3471,W,4.754,20.8,220205,9.7,W*44
$PRWIZCH,05,0,10,0,17,2,20,0,24,7,23,0,09,0,04,7,02,0,07,7,30,0,29,0*4F
$GPGGA,173423,3826.5370,N,07852.3468,W,1,03,1.02,504.1,M,-33.1,M,,*43
$GPGSA,A,2,24,04,07,,,,,,,,,,1.75,1.02,1.43*00
$GPRMC,173423,A,3826.5370,N,07852.3468,W,4.422,26.7,220205,9.7,W*43
$PRWIZCH,05,0,10,0,17,2,20,0,24,7,23,0,09,0,04,7,02,0,07,7,30,0,29,0*4F
$GPGGA,173424,3826.5376,N,07852.3465,W,1,03,1.02,504.5,M,-33.1,M,,*4B
$GPGSA,A,2,24,04,07,,,,,,,,,,1.75,1.02,1.43*00
$GPGSV,3,1,12,04,78,331,43,05,62,236,,07,56,091,41,24,54,042,42*7D
$GPGSV,3,2,12,20,52,077,,23,45,068,,17,19,242,,09,12,285,*7F
$GPGSV,3,3,12,30,12,319,,10,11,194,,02,10,161,,29,07,112,*77
$GPRMC,173424,A,3826.5376,N,07852.3465,W,4.196,31.2,220205,9.7,W*46
$PRWIZCH,05,0,10,0,17,2,20,0,24,7,23,0,09,0,04,7,02,0,07,7,30,0,29,0*4F
$GPGGA,173425,3826.5381,N,07852.3461,W,1,03,1.02,504.8,M,-33.1,M,,*4B
$GPGSA,A,2,24,04,07,,,,,,,,,,1.75,1.02,1.43*00
$GPRMC,173425,A,3826.5381,N,07852.3461,W,4.043,33.8,220205,9.7,W*4A
$PRWIZCH,05,0,10,0,17,2,20,0,24,7,23,0,09,0,04,7,02,0,07,7,30,0,29,0*4F
$GPGGA,173426,3826.5386,N,07852.3457,W,1,03,1.02,505.1,M,-33.1,M,,*42
$GPGSA,A,2,24,04,07,,,,,,,,,,1.75,1.02,1.43*00
$GPGSV,3,1,12,04,78,331,42,05,62,236,,07,56,091,41,24,54,042,43*7D
$GPGSV,3,2,12,20,52,077,,23,45,068,,17,19,242,,09,12,285,*7F
$GPGSV,3,3,12,30,12,319,,10,11,194,,02,10,161,,29,07,112,*77
$GPRMC,173426,A,3826.5386,N,07852.3457,W,3.951,34.9,220205,9.7,W*40
$PRWIZCH,05,0,10,0,17,2,20,0,24,7,23,0,09,0,04,7,02,0,07,7,30,0,29,0*4F
$GPGGA,173427,3826.5390,N,07852.3453,W,1,03,1.02,505.4,M,-33.1,M,,*45
$GPGSA,A,2,24,04,07,,,,,,,,,,1.75,1.02,1.43*00
$GPRMC,173427,A,3826.5390,N,07852.3453,W,3.830,36.9,220205,9.7,W*46
$PRWIZCH,05,0,10,0,17,2,20,0,24,7,23,0,09,0,04,7,02,0,07,7,30,0,29,0*4F
$GPGGA,173428,3826.5395,N,07852.3449,W,1,03,1.02,505.7,M,-33.1,M,,*47
$GPGSA,A,2,24,04,07,,,,,,,,,,1.75,1.02,1.43*00
$GPGSV,3,1,12,04,78,331,42,05,62,236,,07,56,091,42,24,54,042,42*7F
$GPGSV,3,2,12,20,52,077,,23,45,068,,17,19,242,,09,12,285,*7F
$GPGSV,3,3,12,30,12,319,,10,11,194,,02,10,161,,29,07,112,*77
$GPRMC,173428,A,3826.5395,N,07852.3449,W,3.726,37.7,220205,9.7,W*40
$PRWIZCH,05,0,10,0,17,2,20,0,24,7,23,0,09,0,04,7,02,0,07,7,30,0,29,0*4F
$GPGGA,173429,3826.5399,N,07852.3446,W,1,03,1.02,505.9,M,-33.1,M,,*4B
$GPGSA,A,2,24,04,07,,,,,,,,,,1.75,1.02,1.43*00
$GPRMC,173429,A,3826.5399,N,07852.3446,W,3.646,36.8,220205,9.7,W*4B
$PRWIZCH,05,0,10,0,17,2,20,0,24,7,23,0,09,0,04,7,02,0,07,7,30,0,29,0*4F
$GPGGA,173430,3826.5404,N,07852.3442,W,1,03,1.02,506.2,M,-33.1,M,,*4C
$GPGSA,A,2,24,04,07,,,,,,,,,,1.75,1.02,1.43*00
$GPGSV,3,1,12,04,78,331,42,05,62,236,,07,56,091,41,24,54,042,42*7C
$GPGSV,3,2,12,20,52,077,,23,45,068,,17,19,242,,09,12,285,*7F
$GPGSV,3,3,12,30,12,319,,10,11,194,,02,10,161,,29,07,112,*77
$GPRMC,173430,A,3826.5404,N,07852.3442,W,3.603,37.4,220205,9.7,W*48
$PRWIZCH,05,0,10,0,17,2,20,0,24,7,23,0,09,0,04,7,02,0,07,7,30,0,29,0*4F
$GPGGA,173431,3826.5408,N,07852.3439,W,1,03,1.02,506.4,M,-33.1,M,,*4B
$GPGSA,A,2,24,04,07,,,,,,,,,,1.75,1.02,1.43*00
$GPRMC,173431,A,3826.5408,N,07852.3439,W,3.512,34.5,220205,9.7,W*48
$PRWIZCH,05,0,10,0,17,2,20,0,24,7,23,0,09,0,04,7,02,0,07,7,30,0,29,0*4F
$GPGGA,173432,3826.5415,N,07852.3439,W,1,03,1.02,506.6,M,-33.1,M,,*46
$GPGSA,A,2,24,04,07,,,,,,,,,,1.75,1.02,1.43*00
$GPGSV,3,1,12,04,78,331,43,05,62,236,,07,56,091,42,24,54,042,42*7E
$GPGSV,3,2,12,20,52,077,,23,45,068,,17,19,242,,09,12,285,*7F
$GPGSV,3,3,12,30,12,319,,10,11,194,,02,10,161,,29,07,112,*77
$GPRMC,173432,A,3826.5415,N,07852.3439,W,3.513,21.0,220205,9.7,W*47
$PRWIZCH,05,0,09,0,17,2,20,0,24,7,23,0,10,0,04,7,02,0,07,7,30,0,29,0*4F
$GPGGA,173433,3826.5425,N,07852.3446,W,1,03,1.02,506.9,M,-33.1,M,,*43
$GPGSA,A,2,24,04,07,,,,,,,,,,1.75,1.02,1.43*00
$GPRMC,173433,A,3826.5425,N,07852.3446,W,4.187,355.3,220205,9.7,W*70
$PRWIZCH,05,0,09,0,17,2,20,0,24,7,23,0,10,0,04,7,02,0,07,7,30,0,29,0*4F
$GPGGA,173434,3826.5416,N,07852.3483,W,1,04,1.02,507.3,M,-33.1,M,,*41
$GPGSA,A,3,17,24,04,07,,,,,,,,,1.75,1.02,1.43*07
$GPGSV,3,1,12,04,78,331,43,05,62,236,,07,56,091,40,24,54,042,42*7C
$GPGSV,3,2,12,20,52,077,,23,45,068,,17,19,242,,09,12,285,*7F
$GPGSV,3,3,12,30,12,319,,10,11,194,,02,10,161,,29,07,112,*77
$GPRMC,173434,A,3826.5416,N,07852.3483,W,5.713,291.6,220205,9.7,W*78
$PRWIZCH,05,0,09,0,17,7,20,0,24,7,23,0,10,0,04,7,02,0,07,7,30,0,29,0*4A
$GPGGA,173435,3826.5428,N,07852.3510,W,1,04,1.02,508.1,M,-33.1,M,,*4B
$GPGSA,A,3,17,24,04,07,,,,,,,,,1.75,1.02,1.43*07
$GPRMC,173435,A,3826.5428,N,07852.3510,W,7.923,295.2,220205,9.7,W*70
$PRWIZCH,05,0,09,0,17,7,20,0,24,7,23,0,10,0,04,7,02,0,07,7,30,0,29,0*4A
$GPGGA,173436,3826.5449,N,07852.3540,W,1,03,1.02,508.5,M,-33.1,M,,*49
$GPGSA,A,2,24,04,07,,,,,,,,,,1.75,1.02,1.43*00
$GPGSV,3,1,12,04,78,331,43,05,62,236,,07,56,091,40,24,54,042,41*7F
$GPGSV,3,2,12,20,52,077,,23,45,068,,17,19,242,,09,12,285,*7F
$GPGSV,3,3,12,30,12,319,,10,11,194,,02,10,161,,29,07,112,*77
$GPRMC,173436,A,3826.5449,N,07852.3540,W,9.532,308.5,220205,9.7,W*71
$PRWIZCH,05,0,09,0,17,2,20,0,24,7,23,0,10,0,04,7,02,0,07,7,30,0,29,0*4F
$GPGGA,173437,3826.5475,N,07852.3573,W,1,03,1.02,509.0,M,-33.1,M,,*43
$GPGSA,A,2,24,04,07,,,,,,,,,,1.75,1.02,1.43*00
$GPRMC,173437,A,3826.5475,N,07852.3573,W,11.626,314.4,220205,9.7,W*4C
$PRWIZCH,05,0,09,0,17,2,20,0,24,7,23,0,10,0,04,7,02,0,07,7,30,0,29,0*4F
$GPGGA,173438,3826.5504,N,07852.3612,W,1,03,1.02,509.4,M,-33.1,M,,*4B
$GPGSA,A,2,24,04,07,,,,,,,,,,1.75,1.02,1.43*00
$GPGSV,3,1,12,04,78,331,45,05,62,236,,07,56,091,37,24,54,042,39*76
$GPGSV,3,2,12,20,52,077,,23,45,068,,17,19,242,,09,12,285,*7F
$GPGSV,3,3,12,30,12,319,,10,11,194,,02,10,161,,29,07,112,*77
$GPRMC,173438,A,3826.5504,N,07852.3612,W,13.740,317.0,220205,9.7,W*44
$PRWIZCH,05,0,09,0,17,2,20,0,24,7,23,0,10,0,04,7,02,0,07,7,30,0,29,0*4F
$GPGGA,173439,3826.5538,N,07852.3654,W,1,03,1.02,509.9,M,-33.1,M,,*4A
$GPGSA,A,2,24,04,07,,,,,,,,,,1.75,1.02,1.43*00
$GPRMC,173439,A,3826.5538,N,07852.3654,W,15.666,318.5,220205,9.7,W*41
$PRWIZCH,05,0,09,0,17,2,20,0,24,7,23,0,10,0,04,7,02,0,07,7,30,0,29,0*4F
$GPGGA,173440,3826.5575,N,07852.3700,W,1,03,1.02,510.3,M,-33.1,M,,*4F
$GPGSA,A,2,24,04,07,,,,,,,,,,1.75,1.02,1.43*00
$GPGSV,3,1,12,04,78,331,43,05,62,236,,07,56,091,36,24,54,042,40*7F
$GPGSV,3,2,12,20,52,077,,23,45,068,,17,19,242,,09,12,285,*7F
$GPGSV,3,3,12,30,12,319,,10,11,194,,02,10,161,,29,07,112,*77
$GPRMC,173440,A,3826.5575,N,07852.3700,W,17.465,319.1,220205,9.7,W*40
$PRWIZCH,05,0,09,0,17,2,20,0,24,7,23,0,10,0,04,7,02,0,07,7,30,0,29,0*4F
$GPGGA,173441,3826.5617,N,07852.3750,W,1,03,1.02,510.7,M,-33.1,M,,*48
$GPGSA,A,2,24,04,07,,,,,,,,,,1.75,1.02,1.43*00
$GPRMC,173441,A,3826.5617,N,07852.3750,W,19.534,319.6,220205,9.7,W*4F
$PRWIZCH,05,0,09,0,17,2,20,0,24,7,23,0,10,0,04,7,02,0,07,7,30,0,29,0*4F
$GPGGA,173442,3826.5663,N,07852.3804,W,1,03,1.02,511.1,M,-33.1,M,,*41
$GPGSA,A,2,24,04,07,,,,,,,,,,1.75,1.02,1.43*00
$GPGSV,3,1,12,04,78,331,44,05,62,236,,07,56,091,35,24,54,042,41*7A
$GPGSV,3,2,12,20,52,077,,23,45,068,,17,19,242,,09,12,285,*7F
$GPGSV,3,3,12,30,12,319,,10,11,194,,02,10,161,,29,07,112,*77
$GPRMC,173442,A,3826.5663,N,07852.3804,W,21.549,320.2,220205,9.7,W*4E
$PRWIZCH,05,0,09,0,17,2,20,0,24,7,23,0,10,0,04,7,02,0,07,7,30,0,29,0*4F
$GPGGA,173443,3826.5714,N,07852.3862,W,1,03,1.02,511.4,M,-33.1,M,,*44
$GPGSA,A,2,24,04,07,,,,,,,,,,1.75,1.02,1.43*00
$GPRMC,173443,A,3826.5714,N,07852.3862,W,23.378,320.7,220205,9.7,W*4D
$PRWIZCH,05,0,09,0,17,2,20,0,24,7,23,0,10,0,04,7,02,0,07,7,30,0,29,0*4F
$GPGGA,173444,3826.5767,N,07852.3923,W,1,03,1.02,511.7,M,-33.1,M,,*40
$GPGSA,A,2,24,04,07,,,,,,,,,,1.75,1.02,1.43*00
$GPGSV,3,1,12,04,78,331,45,05,62,236,,07,56,091,35,24,54,042,40*7A
$GPGSV,3,2,12,20,52,077,,23,45,068,,17,19,242,,09,12,285,*7F
$GPGSV,3,3,12,30,12,319,,10,11,194,,02,10,161,,29,07,112,*77
$GPRMC,173444,A,3826.5767,N,07852.3923,W,24.812,320.6,220205,9.7,W*4B
$PRWIZCH,05,0,09,0,17,2,20,0,24,7,23,0,10,0,04,7,02,0,07,7,30,0,29,0*4F
$GPGGA,173445,3826.5822,N,07852.3987,W,1,03,1.02,512.0,M,-33.1,M,,*45
$GPGSA,A,2,24,04,07,,,,,,,,,,1.75,1.02,1.43*00
$GPRMC,173445,A,3826.5822,N,07852.3987,W,26.102,320.7,220205,9.7,W*41
$PRWIZCH,05,0,09,0,17,2,20,0,24,7,23,0,10,0,04,7,02,0,07,7,30,0,29,0*4F
$GPGGA,173446,3826.5879,N,07852.4055,W,1,03,1.02,512.2,M,-33.1,M,,*4B
$GPGSA,A,2,24,04,07,,,,,,,,,,1.75,1.02,1.43*00
$GPGSV,3,1,12,04,78,331,44,05,62,236,,07,56,091,36,24,54,042,40*78
$GPGSV,3,2,12,20,52,077,,23,45,068,,17,19,242,,09,12,285,*7F
$GPGSV,3,3,12,30,12,319,,10,11,194,,02,10,161,,29,07,112,*77
$GPRMC,173446,A,3826.5879,N,07852.4055,W,27.385,319.9,220205,9.7,W*45
$PRWIZCH,05,0,09,0,17,2,20,0,24,7,23,0,10,0,04,7,02,0,07,7,30,0,29,0*4F
$GPGGA,173447,3826.5935,N,07852.4127,W,1,03,0.91,512.5,M,-33.1,M,,*4B
$GPGSA,A,2,24,04,07,,,,,,,,,,1.45,0.91,1.13*0D
$GPRMC,173447,A,3826.5935,N,07852.4127,W,28.327,318.3,220205,9.7,W*45
$PRWIZCH,05,0,09,0,17,2,20,0,24,7,23,0,10,0,04,7,02,0,07,7,30,0,29,0*4F
$GPGGA,173448,3826.5989,N,07852.4205,W,1,03,0.91,512.7,M,-33.1,M,,*42
$GPGSA,A,2,24,04,07,,,,,,,,,,1.45,0.91,1.13*0D
$GPGSV,3,1,12,04,78,332,44,05,62,236,,07,56,092,39,24,54,042,42*75
$GPGSV,3,2,12,23,45,067,,17,19,242,34,20,13,039,,30,12,319,*76
$GPGSV,3,3,12,09,12,285,,10,11,194,,02,10,161,,29,07,111,*7A
$GPRMC,173448,A,3826.5989,N,07852.4205,W,29.138,316.2,220205,9.7,W*4C
$PRWIZCH,05,0,09,0,17,2,20,0,24,7,23,0,10,0,04,7,02,0,07,7,30,0,29,0*4F
$GPGGA,173449,3826.6042,N,07852.4287,W,1,03,0.91,512.9,M,-33.1,M,,*4A
$GPGSA,A,2,24,04,07,,,,,,,,,,1.45,0.91,1.13*0D
$GPRMC,173449,A,3826.6042,N,07852.4287,W,29.820,313.8,220205,9.7,W*45
$PRWIZCH,05,0,09,0,17,2,20,0,24,7,23,0,10,0,04,7,02,0,07,7,30,0,29,0*4F
$GPGGA,173450,3826.6075,N,07852.4392,W,1,04,0.91,513.3,M,-33.1,M,,*4F
$GPGSA,A,3,17,24,04,07,,,,,,,,,1.45,0.91,1.13*0A
$GPGSV,3,1,12,04,78,332,44,05,62,236,,07,56,092,39,24,54,042,42*75
$GPGSV,3,2,12,23,45,067,,17,19,242,34,20,13,039,,30,12,319,*76
$GPGSV,3,3,12,09,12,285,,10,11,194,,02,10,161,,29,07,111,*7A
$GPRMC,173450,A,3826.6075,N,07852.4392,W,31.166,302.5,220205,9.7,W*43
$PRWIZCH,05,0,09,0,17,7,20,0,24,7,23,0,10,0,04,7,02,0,07,7,30,0,29,0*4A
$GPGGA,173451,3826.6120,N,07852.4487,W,1,04,0.91,514.1,M,-33.1,M,,*49
$GPGSA,A,3,17,24,04,07,,,,,,,,,1.45,0.91,1.13*0A
$GPRMC,173451,A,3826.6120,N,07852.4487,W,31.613,301.2,220205,9.7,W*41
$PRWIZCH,05,0,09,0,17,7,20,0,24,7,23,0,10,0,04,7,02,0,07,7,30,0,29,0*4A
$GPGGA,173452,3826.6164,N,07852.4584,W,1,04,0.91,515.0,M,-33.1,M,,*48
$GPGSA,A,3,17,24,04,07,,,,,,,,,1.45,0.91,1.13*0A
$GPGSV,3,1,12,04,78,332,44,05,62,236,,07,56,092,39,24,54,042,41*76
$GPGSV,3,2,12,23,45,067,,17,19,242,34,20,13,039,,30,12,319,*76
$GPGSV,3,3,12,09,12,285,,10,11,194,,02,10,161,,29,07,111,*7A
$GPRMC,173452,A,3826.6164,N,07852.4584,W,31.917,300.0,220205,9.7,W*48
$PRWIZCH,05,0,09,0,17,7,20,0,24,7,23,0,10,0,04,7,02,0,07,7,30,0,29,0*4A
$GPGGA,173453,3826.6207,N,07852.4684,W,1,04,0.91,515.8,M,-33.1,M,,*44
$GPGSA,A,3,17,24,04,07,,,,,,,,,1.45,0.91,1.13*0A
$GPRMC,173453,A,3826.6207,N,07852.4684,W,32.132,299.1,220205,9.7,W*40
$PRWIZCH,05,0,09,0,17,7,20,0,24,7,23,0,10,0,04,7,02,0,07,7,30,0,29,0*4A
$GPGGA,173454,3826.6250,N,07852.4782,W,1,04,0.91,516.5,M,-33.1,M,,*48
$GPGSA,A,3,17,24,04,07,,,,,,,,,1.45,0.91,1.13*0A
$GPGSV,3,1,12,04,78,332,44,05,62,236,,07,56,092,39,24,54,042,41*76
$GPGSV,3,2,12,23,45,067,,17,19,242,37,20,13,039,,30,12,319,*75
$GPGSV,3,3,12,09,12,285,,10,11,194,,02,10,161,,29,07,111,*7A
$GPRMC,173454,A,3826.6250,N,07852.4782,W,31.896,299.2,220205,9.7,W*45
$PRWIZCH,05,0,09,0,17,7,20,0,24,7,23,0,10,0,04,7,02,0,07,7,30,0,29,0*4A
$GPGGA,173455,3826.6291,N,07852.4878,W,1,04,0.91,517.0,M,-33.1,M,,*4A
$GPGSA,A,3,17,24,04,07,,,,,,,,,1.45,0.91,1.13*0A
$GPRMC,173455,A,3826.6291,N,07852.4878,W,31.216,299.0,220205,9.7,W*43
$PRWIZCH,05,0,09,0,17,7,20,0,24,7,23,0,10,0,04,7,02,0,07,7,30,0,29,0*4A
$GPGGA,173456,3826.6331,N,07852.4972,W,1,04,0.91,517.4,M,-33.1,M,,*4D
$GPGSA,A,3,17,24,04,07,,,,,,,,,1.45,0.91,1.13*0A
$GPGSV,3,1,12,04,78,332,44,05,62,236,,07,56,092,40,24,54,042,41*78
$GPGSV,3,2,12,23,45,067,,17,19,242,37,20,13,039,,30,12,319,*75
$GPGSV,3,3,12,09,12,285,,10,11,194,,02,10,161,,29,07,111,*7A
$GPRMC,173456,A,3826.6331,N,07852.4972,W,30.479,298.7,220205,9.7,W*48
$PRWIZCH,05,0,09,0,17,7,20,0,24,7,23,0,10,0,04,7,02,0,07,7,30,0,29,0*4A
$GPGGA,173457,3826.6370,N,07852.5063,W,1,04,0.91,517.7,M,-33.1,M,,*42
$GPGSA,A,3,17,24,04,07,,,,,,,,,1.45,0.91,1.13*0A
$GPRMC,173457,A,3826.6370,N,07852.5063,W,29.631,298.8,220205,9.7,W*4D
$PRWIZCH,05,0,09,0,17,7,20,0,24,7,23,0,10,0,04,7,02,0,07,7,30,0,29,0*4A
$GPGGA,173458,3826.6408,N,07852.5152,W,1,04,0.91,517.9,M,-33.1,M,,*48
$GPGSA,A,3,17,24,04,07,,,,,,,,,1.45,0.91,1.13*0A
$GPGSV,3,1,12,04,78,332,44,05,62,236,,07,56,092,40,24,54,042,42*7B
$GPGSV,3,2,12,23,45,067,,17,19,242,37,20,13,039,,30,12,319,*75
$GPGSV,3,3,12,09,12,285,,10,11,194,,02,10,161,,29,07,111,*7A
$GPRMC,173458,A,3826.6408,N,07852.5152,W,28.902,298.3,220205,9.7,W*4C
$PRWIZCH,05,0,09,0,17,7,20,0,24,7,23,0,10,0,04,7,02,0,07,7,30,0,29,0*4A
$GPGGA,173459,3826.6444,N,07852.5239,W,1,04,0.91,518.1,M,-33.1,M,,*48
$GPGSA,A,3,17,24,04,07,,,,,,,,,1.45,0.91,1.13*0A
$GPRMC,173459,A,3826.6444,N,07852.5239,W,28.325,297.8,220205,9.7,W*40
$PRWIZCH,05,0,09,0,17,7,20,0,24,7,23,0,10,0,04,7,02,0,07,7,30,0,29,0*4A
$GPGGA,173500,3826.6480,N,07852.5326,W,1,04,0.91,518.2,M,-33.0,M,,*40
$GPGSA,A,3,17,24,04,07,,,,,,,,,1.45,0.91,1.13*0A
$GPGSV,3,1,12,04,78,332,43,05,62,236,,07,56,092,38,24,54,042,43*72
$GPGSV,3,2,12,23,45,067,,17,19,242,37,20,13,039,,30,12,319,*75
$GPGSV,3,3,12,09,12,285,,10,11,194,,02,10,161,,29,07,111,*7A
$GPRMC,173500,A,3826.6480,N,07852.5326,W,27.872,297.4,220205,9.7,W*40
$PRWIZCH,05,0,09,0,17,7,20,0,24,7,23,0,10,0,04,7,02,0,07,7,30,0,29,0*4A
$GPGGA,173501,3826.6515,N,07852.5410,W,1,04,0.91,518.2,M,-33.0,M,,*4E
$GPGSA,A,3,17,24,04,07,,,,,,,,,1.45,0.91,1.13*0A
$GPRMC,173501,A,3826.6515,N,07852.5410,W,27.236,297.3,220205,9.7,W*43
$PRWIZCH,05,0,09,0,17,7,20,0,24,7,23,0,10,0,04,7,02,0,07,7,30,0,29,0*4A
$GPGGA,173502,3826.6548,N,07852.5492,W,1,04,0.91,518.2,M,-33.0,M,,*4F
$GPGSA,A,3,17,24,04,07,,,,,,,,,1.45,0.91,1.13*0A
$GPGSV,3,1,12,04,78,332,43,05,62,236,,07,56,092,39,24,54,042,43*73
$GPGSV,3,2,12,23,45,067,,17,19,242,37,20,13,039,,30,12,319,*75
$GPGSV,3,3,12,09,12,285,,10,11,194,,02,10,161,,29,07,111,*7A
$GPRMC,173502,A,3826.6548,N,07852.5492,W,26.288,297.4,220205,9.7,W*41
$PRWIZCH,05,0,09,0,17,7,20,0,24,7,23,0,10,0,04,7,02,0,07,7,30,0,29,0*4A
$GPGGA,173503,3826.6581,N,07852.5570,W,1,04,0.91,518.2,M,-33.0,M,,*46
$GPGSA,A,3,17,24,04,07,,,,,,,,,1.45,0.91,1.13*0A
$GPRMC,173503,A,3826.6581,N,07852.5570,W,25.346,297.7,220205,9.7,W*4B
$PRWIZCH,05,0,09,0,17,7,20,0,24,7,23,0,10,0,04,7,02,0,07,7,30,0,29,0*4A
$GPGGA,173504,3826.6612,N,07852.5644,W,1,04,0.91,518.2,M,-33.0,M,,*4C
$GPGSA,A,3,17,24,04,07,,,,,,,,,1.45,0.91,1.13*0A
$GPGSV,3,1,12,04,78,332,43,05,62,236,,07,56,092,38,24,54,042,42*73
$GPGSV,3,2,12,23,45,067,,17,19,242,36,20,13,039,,30,12,319,*74
$GPGSV,3,3,12,09,12,285,,10,11,194,,02,10,161,,29,07,111,*7A
$GPRMC,173504,A,3826.6612,N,07852.5644,W,24.129,298.0,220205,9.7,W*43
$PRWIZCH,05,0,09,0,17,7,20,0,24,7,23,0,10,0,04,7,02,0,07,7,30,0,29,0*4A
$GPGGA,173505,3826.6641,N,07852.5714,W,1,04,0.91,518.2,M,-33.0,M,,*4F
$GPGSA,A,3,17,24,04,07,,,,,,,,,1.45,0.91,1.13*0A
$GPRMC,173505,A,3826.6641,N,07852.5714,W,22.755,298.5,220205,9.7,W*4E
$PRWIZCH,05,0,09,0,17,7,20,0,24,7,23,0,10,0,04,7,02,0,07,7,30,0,29,0*4A
$GPGGA,173506,3826.6669,N,07852.5779,W,1,04,0.91,518.2,M,-33.0,M,,*4D
$GPGSA,A,3,17,24,04,07,,,,,,,,,1.45,0.91,1.13*0A
$GPGSV,3,1,12,04,78,332,42,05,62,236,,07,56,092,38,24,54,042,42*72
$GPGSV,3,2,12,23,45,067,,17,19,242,36,20,13,039,,30,12,319,*74
$GPGSV,3,3,12,09,12,285,,10,11,194,,02,10,161,,29,07,111,*7A
$GPRMC,173506,A,3826.6669,N,07852.5779,W,21.508,298.4,220205,9.7,W*44
$PRWIZCH,05,0,09,0,17,7,20,0,24,7,23,0,10,0,04,7,02,0,07,7,30,0,29,0*4A
$GPGGA,173507,3826.6695,N,07852.5841,W,1,04,0.91,518.3,M,-33.0,M,,*4A
$GPGSA,A,3,17,24,04,07,,,,,,,,,1.45,0.91,1.13*0A
$GPRMC,173507,A,3826.6695,N,07852.5841,W,20.244,298.6,220205,9.7,W*4E
$PRWIZCH,05,0,09,0,17,7,20,0,24,7,23,0,10,0,04,7,02,0,07,7,30,0,29,0*4A
$GPGGA,173508,3826.6719,N,07852.5896,W,1,04,0.91,518.4,M,-33.0,M,,*4D
$GPGSA,A,3,17,24,04,07,,,,,,,,,1.45,0.91,1.13*0A
$GPGSV,3,1,12,04,78,332,43,05,62,236,,07,56,092,39,24,54,042,40*70
$GPGSV,3,2,12,23,45,067,,17,19,242,35,20,13,039,,30,12,319,*77
$GPGSV,3,3,12,09,12,285,,10,11,194,,02,10,161,,29,07,111,*7A
$GPRMC,173508,A,3826.6719,N,07852.5896,W,18.387,300.6,220205,9.7,W*4B
$PRWIZCH,05,0,09,0,17,7,20,0,24,7,23,0,10,0,04,7,02,0,07,7,30,0,29,0*4A
$GPGGA,173509,3826.6744,N,07852.5942,W,1,04,0.91,518.8,M,-33.0,M,,*40
$GPGSA,A,3,17,24,04,07,,,,,,,,,1.45,0.91,1.13*0A
